STOP_ID,DIRECTION_ID,STOP_NAME,STATION_NAME,STATION_DESCRIPTIVE_NAME,MAP_ID,ADA,RED,BLUE,G,BRN,P,Pexp,Y,Pnk,O,Location,Lat,Lon,zips,Community Area,Zipcode,Pop2010
30162,W,18th (54th/Cermak-bound),18th,18th (Pink Line),40830,True,False,False,False,False,False,False,False,True,False,"41.857908, -87.669147",41.857908,-87.669147,60608,28,60608,7667
30162,W,18th (54th/Cermak-bound),18th,18th (Pink Line),40830,True,False,False,False,False,False,False,False,True,False,"41.857908, -87.669147",41.857908,-87.669147,60608,29,60608,2283
30162,W,18th (54th/Cermak-bound),18th,18th (Pink Line),40830,True,False,False,False,False,False,False,False,True,False,"41.857908, -87.669147",41.857908,-87.669147,60608,30,60608,16654
30162,W,18th (54th/Cermak-bound),18th,18th (Pink Line),40830,True,False,False,False,False,False,False,False,True,False,"41.857908, -87.669147",41.857908,-87.669147,60608,31,60608,34380
30162,W,18th (54th/Cermak-bound),18th,18th (Pink Line),40830,True,False,False,False,False,False,False,False,True,False,"41.857908, -87.669147",41.857908,-87.669147,60608,59,60608,6594
30162,W,18th (54th/Cermak-bound),18th,18th (Pink Line),40830,True,False,False,False,False,False,False,False,True,False,"41.857908, -87.669147",41.857908,-87.669147,60608,60,60608,15161
30161,E,18th (Loop-bound),18th,18th (Pink Line),40830,True,False,False,False,False,False,False,False,True,False,"41.857908, -87.669147",41.857908,-87.669147,60608,28,60608,7667
30161,E,18th (Loop-bound),18th,18th (Pink Line),40830,True,False,False,False,False,False,False,False,True,False,"41.857908, -87.669147",41.857908,-87.669147,60608,29,60608,2283
30161,E,18th (Loop-bound),18th,18th (Pink Line),40830,True,False,False,False,False,False,False,False,True,False,"41.857908, -87.669147",41.857908,-87.669147,60608,30,60608,16654
30161,E,18th (Loop-bound),18th,18th (Pink Line),40830,True,False,False,False,False,False,False,False,True,False,"41.857908, -87.669147",41.857908,-87.669147,60608,31,60608,34380
30161,E,18th (Loop-bound),18th,18th (Pink Line),40830,True,False,False,False,False,False,False,False,True,False,"41.857908, -87.669147",41.857908,-87.669147,60608,59,60608,6594
30161,E,18th (Loop-bound),18th,18th (Pink Line),40830,True,False,False,False,False,False,False,False,True,False,"41.857908, -87.669147",41.857908,-87.669147,60608,60,60608,15161
30205,N,Ashland (Loop-bound),Ashland,Ashland (Orange Line),41060,True,False,False,False,False,False,False,False,False,True,"41.839234, -87.665317",41.839234,-87.665317,60608,28,60608,7667
30205,N,Ashland (Loop-bound),Ashland,Ashland (Orange Line),41060,True,False,False,False,False,False,False,False,False,True,"41.839234, -87.665317",41.839234,-87.665317,60608,29,60608,2283
30205,N,Ashland (Loop-bound),Ashland,Ashland (Orange Line),41060,True,False,False,False,False,False,False,False,False,True,"41.839234, -87.665317",41.839234,-87.665317,60608,30,60608,16654
30205,N,Ashland (Loop-bound),Ashland,Ashland (Orange Line),41060,True,False,False,False,False,False,False,False,False,True,"41.839234, -87.665317",41.839234,-87.665317,60608,31,60608,34380
30205,N,Ashland (Loop-bound),Ashland,Ashland (Orange Line),41060,True,False,False,False,False,False,False,False,False,True,"41.839234, -87.665317",41.839234,-87.665317,60608,59,60608,6594
30205,N,Ashland (Loop-bound),Ashland,Ashland (Orange Line),41060,True,False,False,False,False,False,False,False,False,True,"41.839234, -87.665317",41.839234,-87.665317,60608,60,60608,15161
30206,S,Ashland (Midway-bound),Ashland,Ashland (Orange Line),41060,True,False,False,False,False,False,False,False,False,True,"41.839234, -87.665317",41.839234,-87.665317,60608,28,60608,7667
30206,S,Ashland (Midway-bound),Ashland,Ashland (Orange Line),41060,True,False,False,False,False,False,False,False,False,True,"41.839234, -87.665317",41.839234,-87.665317,60608,29,60608,2283
30206,S,Ashland (Midway-bound),Ashland,Ashland (Orange Line),41060,True,False,False,False,False,False,False,False,False,True,"41.839234, -87.665317",41.839234,-87.665317,60608,30,60608,16654
30206,S,Ashland (Midway-bound),Ashland,Ashland (Orange Line),41060,True,False,False,False,False,False,False,False,False,True,"41.839234, -87.665317",41.839234,-87.665317,60608,31,60608,34380
30206,S,Ashland (Midway-bound),Ashland,Ashland (Orange Line),41060,True,False,False,False,False,False,False,False,False,True,"41.839234, -87.665317",41.839234,-87.665317,60608,59,60608,6594
30206,S,Ashland (Midway-bound),Ashland,Ashland (Orange Line),41060,True,False,False,False,False,False,False,False,False,True,"41.839234, -87.665317",41.839234,-87.665317,60608,60,60608,15161
30087,W,California (54th/Cermak-bound),California,California (Pink Line),40440,True,False,False,False,False,False,False,False,True,False,"41.854109, -87.694774",41.854109,-87.694774,60608,28,60608,7667
30087,W,California (54th/Cermak-bound),California,California (Pink Line),40440,True,False,False,False,False,False,False,False,True,False,"41.854109, -87.694774",41.854109,-87.694774,60608,29,60608,2283
30087,W,California (54th/Cermak-bound),California,California (Pink Line),40440,True,False,False,False,False,False,False,False,True,False,"41.854109, -87.694774",41.854109,-87.694774,60608,30,60608,16654
30087,W,California (54th/Cermak-bound),California,California (Pink Line),40440,True,False,False,False,False,False,False,False,True,False,"41.854109, -87.694774",41.854109,-87.694774,60608,31,60608,34380
30087,W,California (54th/Cermak-bound),California,California (Pink Line),40440,True,False,False,False,False,False,False,False,True,False,"41.854109, -87.694774",41.854109,-87.694774,60608,59,60608,6594
30087,W,California (54th/Cermak-bound),California,California (Pink Line),40440,True,False,False,False,False,False,False,False,True,False,"41.854109, -87.694774",41.854109,-87.694774,60608,60,60608,15161
30086,E,California (Loop-bound),California,California (Pink Line),40440,True,False,False,False,False,False,False,False,True,False,"41.854109, -87.694774",41.854109,-87.694774,60608,28,60608,7667
30086,E,California (Loop-bound),California,California (Pink Line),40440,True,False,False,False,False,False,False,False,True,False,"41.854109, -87.694774",41.854109,-87.694774,60608,29,60608,2283
30086,E,California (Loop-bound),California,California (Pink Line),40440,True,False,False,False,False,False,False,False,True,False,"41.854109, -87.694774",41.854109,-87.694774,60608,30,60608,16654
30086,E,California (Loop-bound),California,California (Pink Line),40440,True,False,False,False,False,False,False,False,True,False,"41.854109, -87.694774",41.854109,-87.694774,60608,31,60608,34380
30086,E,California (Loop-bound),California,California (Pink Line),40440,True,False,False,False,False,False,False,False,True,False,"41.854109, -87.694774",41.854109,-87.694774,60608,59,60608,6594
30086,E,California (Loop-bound),California,California (Pink Line),40440,True,False,False,False,False,False,False,False,True,False,"41.854109, -87.694774",41.854109,-87.694774,60608,60,60608,15161
30041,W,Damen (54th/Cermak-bound),Damen,Damen (Pink Line),40210,True,False,False,False,False,False,False,False,True,False,"41.854517, -87.675975",41.854517,-87.675975,60608,28,60608,7667
30041,W,Damen (54th/Cermak-bound),Damen,Damen (Pink Line),40210,True,False,False,False,False,False,False,False,True,False,"41.854517, -87.675975",41.854517,-87.675975,60608,29,60608,2283
30041,W,Damen (54th/Cermak-bound),Damen,Damen (Pink Line),40210,True,False,False,False,False,False,False,False,True,False,"41.854517, -87.675975",41.854517,-87.675975,60608,30,60608,16654
30041,W,Damen (54th/Cermak-bound),Damen,Damen (Pink Line),40210,True,False,False,False,False,False,False,False,True,False,"41.854517, -87.675975",41.854517,-87.675975,60608,31,60608,34380
30041,W,Damen (54th/Cermak-bound),Damen,Damen (Pink Line),40210,True,False,False,False,False,False,False,False,True,False,"41.854517, -87.675975",41.854517,-87.675975,60608,59,60608,6594
30041,W,Damen (54th/Cermak-bound),Damen,Damen (Pink Line),40210,True,False,False,False,False,False,False,False,True,False,"41.854517, -87.675975",41.854517,-87.675975,60608,60,60608,15161
30040,E,Damen (Loop-bound),Damen,Damen (Pink Line),40210,True,False,False,False,False,False,False,False,True,False,"41.854517, -87.675975",41.854517,-87.675975,60608,28,60608,7667
30040,E,Damen (Loop-bound),Damen,Damen (Pink Line),40210,True,False,False,False,False,False,False,False,True,False,"41.854517, -87.675975",41.854517,-87.675975,60608,29,60608,2283
30040,E,Damen (Loop-bound),Damen,Damen (Pink Line),40210,True,False,False,False,False,False,False,False,True,False,"41.854517, -87.675975",41.854517,-87.675975,60608,30,60608,16654
30040,E,Damen (Loop-bound),Damen,Damen (Pink Line),40210,True,False,False,False,False,False,False,False,True,False,"41.854517, -87.675975",41.854517,-87.675975,60608,31,60608,34380
30040,E,Damen (Loop-bound),Damen,Damen (Pink Line),40210,True,False,False,False,False,False,False,False,True,False,"41.854517, -87.675975",41.854517,-87.675975,60608,59,60608,6594
30040,E,Damen (Loop-bound),Damen,Damen (Pink Line),40210,True,False,False,False,False,False,False,False,True,False,"41.854517, -87.675975",41.854517,-87.675975,60608,60,60608,15161
30215,N,Halsted (Loop-bound),Halsted,Halsted (Orange Line),41130,True,False,False,False,False,False,False,False,False,True,"41.84678, -87.648088",41.84678,-87.648088,60608,28,60608,7667
30215,N,Halsted (Loop-bound),Halsted,Halsted (Orange Line),41130,True,False,False,False,False,False,False,False,False,True,"41.84678, -87.648088",41.84678,-87.648088,60608,29,60608,2283
30215,N,Halsted (Loop-bound),Halsted,Halsted (Orange Line),41130,True,False,False,False,False,False,False,False,False,True,"41.84678, -87.648088",41.84678,-87.648088,60608,30,60608,16654
30215,N,Halsted (Loop-bound),Halsted,Halsted (Orange Line),41130,True,False,False,False,False,False,False,False,False,True,"41.84678, -87.648088",41.84678,-87.648088,60608,31,60608,34380
30215,N,Halsted (Loop-bound),Halsted,Halsted (Orange Line),41130,True,False,False,False,False,False,False,False,False,True,"41.84678, -87.648088",41.84678,-87.648088,60608,59,60608,6594
30215,N,Halsted (Loop-bound),Halsted,Halsted (Orange Line),41130,True,False,False,False,False,False,False,False,False,True,"41.84678, -87.648088",41.84678,-87.648088,60608,60,60608,15161
30216,S,Halsted (Midway-bound),Halsted,Halsted (Orange Line),41130,True,False,False,False,False,False,False,False,False,True,"41.84678, -87.648088",41.84678,-87.648088,60608,28,60608,7667
30216,S,Halsted (Midway-bound),Halsted,Halsted (Orange Line),41130,True,False,False,False,False,False,False,False,False,True,"41.84678, -87.648088",41.84678,-87.648088,60608,29,60608,2283
30216,S,Halsted (Midway-bound),Halsted,Halsted (Orange Line),41130,True,False,False,False,False,False,False,False,False,True,"41.84678, -87.648088",41.84678,-87.648088,60608,30,60608,16654
30216,S,Halsted (Midway-bound),Halsted,Halsted (Orange Line),41130,True,False,False,False,False,False,False,False,False,True,"41.84678, -87.648088",41.84678,-87.648088,60608,31,60608,34380
30216,S,Halsted (Midway-bound),Halsted,Halsted (Orange Line),41130,True,False,False,False,False,False,False,False,False,True,"41.84678, -87.648088",41.84678,-87.648088,60608,59,60608,6594
30216,S,Halsted (Midway-bound),Halsted,Halsted (Orange Line),41130,True,False,False,False,False,False,False,False,False,True,"41.84678, -87.648088",41.84678,-87.648088,60608,60,60608,15161
30144,W,Western (54th/Cermak-bound),Western,Western (Pink Line),40740,True,False,False,False,False,False,False,False,True,False,"41.854225, -87.685129",41.854225,-87.685129,60608,28,60608,7667
30144,W,Western (54th/Cermak-bound),Western,Western (Pink Line),40740,True,False,False,False,False,False,False,False,True,False,"41.854225, -87.685129",41.854225,-87.685129,60608,29,60608,2283
30144,W,Western (54th/Cermak-bound),Western,Western (Pink Line),40740,True,False,False,False,False,False,False,False,True,False,"41.854225, -87.685129",41.854225,-87.685129,60608,30,60608,16654
30144,W,Western (54th/Cermak-bound),Western,Western (Pink Line),40740,True,False,False,False,False,False,False,False,True,False,"41.854225, -87.685129",41.854225,-87.685129,60608,31,60608,34380
30144,W,Western (54th/Cermak-bound),Western,Western (Pink Line),40740,True,False,False,False,False,False,False,False,True,False,"41.854225, -87.685129",41.854225,-87.685129,60608,59,60608,6594
30144,W,Western (54th/Cermak-bound),Western,Western (Pink Line),40740,True,False,False,False,False,False,False,False,True,False,"41.854225, -87.685129",41.854225,-87.685129,60608,60,60608,15161
30143,E,Western (Loop-bound),Western,Western (Pink Line),40740,True,False,False,False,False,False,False,False,True,False,"41.854225, -87.685129",41.854225,-87.685129,60608,28,60608,7667
30143,E,Western (Loop-bound),Western,Western (Pink Line),40740,True,False,False,False,False,False,False,False,True,False,"41.854225, -87.685129",41.854225,-87.685129,60608,29,60608,2283
30143,E,Western (Loop-bound),Western,Western (Pink Line),40740,True,False,False,False,False,False,False,False,True,False,"41.854225, -87.685129",41.854225,-87.685129,60608,30,60608,16654
30143,E,Western (Loop-bound),Western,Western (Pink Line),40740,True,False,False,False,False,False,False,False,True,False,"41.854225, -87.685129",41.854225,-87.685129,60608,31,60608,34380
30143,E,Western (Loop-bound),Western,Western (Pink Line),40740,True,False,False,False,False,False,False,False,True,False,"41.854225, -87.685129",41.854225,-87.685129,60608,59,60608,6594
30143,E,Western (Loop-bound),Western,Western (Pink Line),40740,True,False,False,False,False,False,False,False,True,False,"41.854225, -87.685129",41.854225,-87.685129,60608,60,60608,15161
30022,N,35th/Archer (Loop-bound),35th/Archer,35th/Archer (Orange Line),40120,True,False,False,False,False,False,False,False,False,True,"41.829353, -87.680622",41.829353,-87.680622,60609,34,60609,906
30022,N,35th/Archer (Loop-bound),35th/Archer,35th/Archer (Orange Line),40120,True,False,False,False,False,False,False,False,False,True,"41.829353, -87.680622",41.829353,-87.680622,60609,35,60609,386
30022,N,35th/Archer (Loop-bound),35th/Archer,35th/Archer (Orange Line),40120,True,False,False,False,False,False,False,False,False,True,"41.829353, -87.680622",41.829353,-87.680622,60609,37,60609,2876
30022,N,35th/Archer (Loop-bound),35th/Archer,35th/Archer (Orange Line),40120,True,False,False,False,False,False,False,False,False,True,"41.829353, -87.680622",41.829353,-87.680622,60609,38,60609,812
30022,N,35th/Archer (Loop-bound),35th/Archer,35th/Archer (Orange Line),40120,True,False,False,False,False,False,False,False,False,True,"41.829353, -87.680622",41.829353,-87.680622,60609,40,60609,57
30022,N,35th/Archer (Loop-bound),35th/Archer,35th/Archer (Orange Line),40120,True,False,False,False,False,False,False,False,False,True,"41.829353, -87.680622",41.829353,-87.680622,60609,58,60609,246
30022,N,35th/Archer (Loop-bound),35th/Archer,35th/Archer (Orange Line),40120,True,False,False,False,False,False,False,False,False,True,"41.829353, -87.680622",41.829353,-87.680622,60609,59,60609,8843
30022,N,35th/Archer (Loop-bound),35th/Archer,35th/Archer (Orange Line),40120,True,False,False,False,False,False,False,False,False,True,"41.829353, -87.680622",41.829353,-87.680622,60609,60,60609,5115
30022,N,35th/Archer (Loop-bound),35th/Archer,35th/Archer (Orange Line),40120,True,False,False,False,False,False,False,False,False,True,"41.829353, -87.680622",41.829353,-87.680622,60609,61,60609,44377
30022,N,35th/Archer (Loop-bound),35th/Archer,35th/Archer (Orange Line),40120,True,False,False,False,False,False,False,False,False,True,"41.829353, -87.680622",41.829353,-87.680622,60609,63,60609,1288
30023,S,35th/Archer (Midway-bound),35th/Archer,35th/Archer (Orange Line),40120,True,False,False,False,False,False,False,False,False,True,"41.829353, -87.680622",41.829353,-87.680622,60609,34,60609,906
30023,S,35th/Archer (Midway-bound),35th/Archer,35th/Archer (Orange Line),40120,True,False,False,False,False,False,False,False,False,True,"41.829353, -87.680622",41.829353,-87.680622,60609,35,60609,386
30023,S,35th/Archer (Midway-bound),35th/Archer,35th/Archer (Orange Line),40120,True,False,False,False,False,False,False,False,False,True,"41.829353, -87.680622",41.829353,-87.680622,60609,37,60609,2876
30023,S,35th/Archer (Midway-bound),35th/Archer,35th/Archer (Orange Line),40120,True,False,False,False,False,False,False,False,False,True,"41.829353, -87.680622",41.829353,-87.680622,60609,38,60609,812
30023,S,35th/Archer (Midway-bound),35th/Archer,35th/Archer (Orange Line),40120,True,False,False,False,False,False,False,False,False,True,"41.829353, -87.680622",41.829353,-87.680622,60609,40,60609,57
30023,S,35th/Archer (Midway-bound),35th/Archer,35th/Archer (Orange Line),40120,True,False,False,False,False,False,False,False,False,True,"41.829353, -87.680622",41.829353,-87.680622,60609,58,60609,246
30023,S,35th/Archer (Midway-bound),35th/Archer,35th/Archer (Orange Line),40120,True,False,False,False,False,False,False,False,False,True,"41.829353, -87.680622",41.829353,-87.680622,60609,59,60609,8843
30023,S,35th/Archer (Midway-bound),35th/Archer,35th/Archer (Orange Line),40120,True,False,False,False,False,False,False,False,False,True,"41.829353, -87.680622",41.829353,-87.680622,60609,60,60609,5115
30023,S,35th/Archer (Midway-bound),35th/Archer,35th/Archer (Orange Line),40120,True,False,False,False,False,False,False,False,False,True,"41.829353, -87.680622",41.829353,-87.680622,60609,61,60609,44377
30023,S,35th/Archer (Midway-bound),35th/Archer,35th/Archer (Orange Line),40120,True,False,False,False,False,False,False,False,False,True,"41.829353, -87.680622",41.829353,-87.680622,60609,63,60609,1288
30224,S,Garfield (95th-bound),Garfield,Garfield (Red Line),41170,True,True,False,False,False,False,False,False,False,False,"41.79542, -87.631157",41.79542,-87.631157,60609,34,60609,906
30224,S,Garfield (95th-bound),Garfield,Garfield (Red Line),41170,True,True,False,False,False,False,False,False,False,False,"41.79542, -87.631157",41.79542,-87.631157,60609,35,60609,386
30224,S,Garfield (95th-bound),Garfield,Garfield (Red Line),41170,True,True,False,False,False,False,False,False,False,False,"41.79542, -87.631157",41.79542,-87.631157,60609,37,60609,2876
30224,S,Garfield (95th-bound),Garfield,Garfield (Red Line),41170,True,True,False,False,False,False,False,False,False,False,"41.79542, -87.631157",41.79542,-87.631157,60609,38,60609,812
30224,S,Garfield (95th-bound),Garfield,Garfield (Red Line),41170,True,True,False,False,False,False,False,False,False,False,"41.79542, -87.631157",41.79542,-87.631157,60609,40,60609,57
30224,S,Garfield (95th-bound),Garfield,Garfield (Red Line),41170,True,True,False,False,False,False,False,False,False,False,"41.79542, -87.631157",41.79542,-87.631157,60609,58,60609,246
30224,S,Garfield (95th-bound),Garfield,Garfield (Red Line),41170,True,True,False,False,False,False,False,False,False,False,"41.79542, -87.631157",41.79542,-87.631157,60609,59,60609,8843
30224,S,Garfield (95th-bound),Garfield,Garfield (Red Line),41170,True,True,False,False,False,False,False,False,False,False,"41.79542, -87.631157",41.79542,-87.631157,60609,60,60609,5115
30224,S,Garfield (95th-bound),Garfield,Garfield (Red Line),41170,True,True,False,False,False,False,False,False,False,False,"41.79542, -87.631157",41.79542,-87.631157,60609,61,60609,44377
30224,S,Garfield (95th-bound),Garfield,Garfield (Red Line),41170,True,True,False,False,False,False,False,False,False,False,"41.79542, -87.631157",41.79542,-87.631157,60609,63,60609,1288
30060,N,Western (Loop-bound),Western,Western (Orange Line),40310,True,False,False,False,False,False,False,False,False,True,"41.804546, -87.684019",41.804546,-87.684019,60609,34,60609,906
30060,N,Western (Loop-bound),Western,Western (Orange Line),40310,True,False,False,False,False,False,False,False,False,True,"41.804546, -87.684019",41.804546,-87.684019,60609,35,60609,386
30060,N,Western (Loop-bound),Western,Western (Orange Line),40310,True,False,False,False,False,False,False,False,False,True,"41.804546, -87.684019",41.804546,-87.684019,60609,37,60609,2876
30060,N,Western (Loop-bound),Western,Western (Orange Line),40310,True,False,False,False,False,False,False,False,False,True,"41.804546, -87.684019",41.804546,-87.684019,60609,38,60609,812
30060,N,Western (Loop-bound),Western,Western (Orange Line),40310,True,False,False,False,False,False,False,False,False,True,"41.804546, -87.684019",41.804546,-87.684019,60609,40,60609,57
30060,N,Western (Loop-bound),Western,Western (Orange Line),40310,True,False,False,False,False,False,False,False,False,True,"41.804546, -87.684019",41.804546,-87.684019,60609,58,60609,246
30060,N,Western (Loop-bound),Western,Western (Orange Line),40310,True,False,False,False,False,False,False,False,False,True,"41.804546, -87.684019",41.804546,-87.684019,60609,59,60609,8843
30060,N,Western (Loop-bound),Western,Western (Orange Line),40310,True,False,False,False,False,False,False,False,False,True,"41.804546, -87.684019",41.804546,-87.684019,60609,60,60609,5115
30060,N,Western (Loop-bound),Western,Western (Orange Line),40310,True,False,False,False,False,False,False,False,False,True,"41.804546, -87.684019",41.804546,-87.684019,60609,61,60609,44377
30060,N,Western (Loop-bound),Western,Western (Orange Line),40310,True,False,False,False,False,False,False,False,False,True,"41.804546, -87.684019",41.804546,-87.684019,60609,63,60609,1288
30061,S,Western (Midway-bound),Western,Western (Orange Line),40310,True,False,False,False,False,False,False,False,False,True,"41.804546, -87.684019",41.804546,-87.684019,60609,34,60609,906
30061,S,Western (Midway-bound),Western,Western (Orange Line),40310,True,False,False,False,False,False,False,False,False,True,"41.804546, -87.684019",41.804546,-87.684019,60609,35,60609,386
30061,S,Western (Midway-bound),Western,Western (Orange Line),40310,True,False,False,False,False,False,False,False,False,True,"41.804546, -87.684019",41.804546,-87.684019,60609,37,60609,2876
30061,S,Western (Midway-bound),Western,Western (Orange Line),40310,True,False,False,False,False,False,False,False,False,True,"41.804546, -87.684019",41.804546,-87.684019,60609,38,60609,812
30061,S,Western (Midway-bound),Western,Western (Orange Line),40310,True,False,False,False,False,False,False,False,False,True,"41.804546, -87.684019",41.804546,-87.684019,60609,40,60609,57
30061,S,Western (Midway-bound),Western,Western (Orange Line),40310,True,False,False,False,False,False,False,False,False,True,"41.804546, -87.684019",41.804546,-87.684019,60609,58,60609,246
30061,S,Western (Midway-bound),Western,Western (Orange Line),40310,True,False,False,False,False,False,False,False,False,True,"41.804546, -87.684019",41.804546,-87.684019,60609,59,60609,8843
30061,S,Western (Midway-bound),Western,Western (Orange Line),40310,True,False,False,False,False,False,False,False,False,True,"41.804546, -87.684019",41.804546,-87.684019,60609,60,60609,5115
30061,S,Western (Midway-bound),Western,Western (Orange Line),40310,True,False,False,False,False,False,False,False,False,True,"41.804546, -87.684019",41.804546,-87.684019,60609,61,60609,44377
30061,S,Western (Midway-bound),Western,Western (Orange Line),40310,True,False,False,False,False,False,False,False,False,True,"41.804546, -87.684019",41.804546,-87.684019,60609,63,60609,1288
30238,S,47th (95th-bound),47th,47th (Red Line),41230,True,True,False,False,False,False,False,False,False,False,"41.810318, -87.63094",41.810318,-87.63094,60609,34,60609,906
30238,S,47th (95th-bound),47th,47th (Red Line),41230,True,True,False,False,False,False,False,False,False,False,"41.810318, -87.63094",41.810318,-87.63094,60609,35,60609,386
30238,S,47th (95th-bound),47th,47th (Red Line),41230,True,True,False,False,False,False,False,False,False,False,"41.810318, -87.63094",41.810318,-87.63094,60609,37,60609,2876
30238,S,47th (95th-bound),47th,47th (Red Line),41230,True,True,False,False,False,False,False,False,False,False,"41.810318, -87.63094",41.810318,-87.63094,60609,38,60609,812
30238,S,47th (95th-bound),47th,47th (Red Line),41230,True,True,False,False,False,False,False,False,False,False,"41.810318, -87.63094",41.810318,-87.63094,60609,40,60609,57
30238,S,47th (95th-bound),47th,47th (Red Line),41230,True,True,False,False,False,False,False,False,False,False,"41.810318, -87.63094",41.810318,-87.63094,60609,58,60609,246
30238,S,47th (95th-bound),47th,47th (Red Line),41230,True,True,False,False,False,False,False,False,False,False,"41.810318, -87.63094",41.810318,-87.63094,60609,59,60609,8843
30238,S,47th (95th-bound),47th,47th (Red Line),41230,True,True,False,False,False,False,False,False,False,False,"41.810318, -87.63094",41.810318,-87.63094,60609,60,60609,5115
30238,S,47th (95th-bound),47th,47th (Red Line),41230,True,True,False,False,False,False,False,False,False,False,"41.810318, -87.63094",41.810318,-87.63094,60609,61,60609,44377
30238,S,47th (95th-bound),47th,47th (Red Line),41230,True,True,False,False,False,False,False,False,False,False,"41.810318, -87.63094",41.810318,-87.63094,60609,63,60609,1288
30237,N,47th (Howard-bound),47th,47th (Red Line),41230,True,True,False,False,False,False,False,False,False,False,"41.810318, -87.63094",41.810318,-87.63094,60609,34,60609,906
30237,N,47th (Howard-bound),47th,47th (Red Line),41230,True,True,False,False,False,False,False,False,False,False,"41.810318, -87.63094",41.810318,-87.63094,60609,35,60609,386
30237,N,47th (Howard-bound),47th,47th (Red Line),41230,True,True,False,False,False,False,False,False,False,False,"41.810318, -87.63094",41.810318,-87.63094,60609,37,60609,2876
30237,N,47th (Howard-bound),47th,47th (Red Line),41230,True,True,False,False,False,False,False,False,False,False,"41.810318, -87.63094",41.810318,-87.63094,60609,38,60609,812
30237,N,47th (Howard-bound),47th,47th (Red Line),41230,True,True,False,False,False,False,False,False,False,False,"41.810318, -87.63094",41.810318,-87.63094,60609,40,60609,57
30237,N,47th (Howard-bound),47th,47th (Red Line),41230,True,True,False,False,False,False,False,False,False,False,"41.810318, -87.63094",41.810318,-87.63094,60609,58,60609,246
30237,N,47th (Howard-bound),47th,47th (Red Line),41230,True,True,False,False,False,False,False,False,False,False,"41.810318, -87.63094",41.810318,-87.63094,60609,59,60609,8843
30237,N,47th (Howard-bound),47th,47th (Red Line),41230,True,True,False,False,False,False,False,False,False,False,"41.810318, -87.63094",41.810318,-87.63094,60609,60,60609,5115
30237,N,47th (Howard-bound),47th,47th (Red Line),41230,True,True,False,False,False,False,False,False,False,False,"41.810318, -87.63094",41.810318,-87.63094,60609,61,60609,44377
30237,N,47th (Howard-bound),47th,47th (Red Line),41230,True,True,False,False,False,False,False,False,False,False,"41.810318, -87.63094",41.810318,-87.63094,60609,63,60609,1288
30223,N,Garfield (Howard-bound),Garfield,Garfield (Red Line),41170,True,True,False,False,False,False,False,False,False,False,"41.79542, -87.631157",41.79542,-87.631157,60609,34,60609,906
30223,N,Garfield (Howard-bound),Garfield,Garfield (Red Line),41170,True,True,False,False,False,False,False,False,False,False,"41.79542, -87.631157",41.79542,-87.631157,60609,35,60609,386
30223,N,Garfield (Howard-bound),Garfield,Garfield (Red Line),41170,True,True,False,False,False,False,False,False,False,False,"41.79542, -87.631157",41.79542,-87.631157,60609,37,60609,2876
30223,N,Garfield (Howard-bound),Garfield,Garfield (Red Line),41170,True,True,False,False,False,False,False,False,False,False,"41.79542, -87.631157",41.79542,-87.631157,60609,38,60609,812
30223,N,Garfield (Howard-bound),Garfield,Garfield (Red Line),41170,True,True,False,False,False,False,False,False,False,False,"41.79542, -87.631157",41.79542,-87.631157,60609,40,60609,57
30223,N,Garfield (Howard-bound),Garfield,Garfield (Red Line),41170,True,True,False,False,False,False,False,False,False,False,"41.79542, -87.631157",41.79542,-87.631157,60609,58,60609,246
30223,N,Garfield (Howard-bound),Garfield,Garfield (Red Line),41170,True,True,False,False,False,False,False,False,False,False,"41.79542, -87.631157",41.79542,-87.631157,60609,59,60609,8843
30223,N,Garfield (Howard-bound),Garfield,Garfield (Red Line),41170,True,True,False,False,False,False,False,False,False,False,"41.79542, -87.631157",41.79542,-87.631157,60609,60,60609,5115
30223,N,Garfield (Howard-bound),Garfield,Garfield (Red Line),41170,True,True,False,False,False,False,False,False,False,False,"41.79542, -87.631157",41.79542,-87.631157,60609,61,60609,44377
30223,N,Garfield (Howard-bound),Garfield,Garfield (Red Line),41170,True,True,False,False,False,False,False,False,False,False,"41.79542, -87.631157",41.79542,-87.631157,60609,63,60609,1288
30214,S,35-Bronzeville-IIT (63rd-bound),35th-Bronzeville-IIT,35th-Bronzeville-IIT (Green Line),41120,True,False,False,True,False,False,False,False,False,False,"41.831677, -87.625826",41.831677,-87.625826,60616,28,60616,147
30214,S,35-Bronzeville-IIT (63rd-bound),35th-Bronzeville-IIT,35th-Bronzeville-IIT (Green Line),41120,True,False,False,True,False,False,False,False,False,False,"41.831677, -87.625826",41.831677,-87.625826,60616,31,60616,1389
30214,S,35-Bronzeville-IIT (63rd-bound),35th-Bronzeville-IIT,35th-Bronzeville-IIT (Green Line),41120,True,False,False,True,False,False,False,False,False,False,"41.831677, -87.625826",41.831677,-87.625826,60616,33,60616,10077
30214,S,35-Bronzeville-IIT (63rd-bound),35th-Bronzeville-IIT,35th-Bronzeville-IIT (Green Line),41120,True,False,False,True,False,False,False,False,False,False,"41.831677, -87.625826",41.831677,-87.625826,60616,34,60616,12485
30214,S,35-Bronzeville-IIT (63rd-bound),35th-Bronzeville-IIT,35th-Bronzeville-IIT (Green Line),41120,True,False,False,True,False,False,False,False,False,False,"41.831677, -87.625826",41.831677,-87.625826,60616,35,60616,12634
30214,S,35-Bronzeville-IIT (63rd-bound),35th-Bronzeville-IIT,35th-Bronzeville-IIT (Green Line),41120,True,False,False,True,False,False,False,False,False,False,"41.831677, -87.625826",41.831677,-87.625826,60616,60,60616,11701
30213,N,35-Bronzeville-IIT (Harlem-bound),35th-Bronzeville-IIT,35th-Bronzeville-IIT (Green Line),41120,True,False,False,True,False,False,False,False,False,False,"41.831677, -87.625826",41.831677,-87.625826,60616,28,60616,147
30213,N,35-Bronzeville-IIT (Harlem-bound),35th-Bronzeville-IIT,35th-Bronzeville-IIT (Green Line),41120,True,False,False,True,False,False,False,False,False,False,"41.831677, -87.625826",41.831677,-87.625826,60616,31,60616,1389
30213,N,35-Bronzeville-IIT (Harlem-bound),35th-Bronzeville-IIT,35th-Bronzeville-IIT (Green Line),41120,True,False,False,True,False,False,False,False,False,False,"41.831677, -87.625826",41.831677,-87.625826,60616,33,60616,10077
30213,N,35-Bronzeville-IIT (Harlem-bound),35th-Bronzeville-IIT,35th-Bronzeville-IIT (Green Line),41120,True,False,False,True,False,False,False,False,False,False,"41.831677, -87.625826",41.831677,-87.625826,60616,34,60616,12485
30213,N,35-Bronzeville-IIT (Harlem-bound),35th-Bronzeville-IIT,35th-Bronzeville-IIT (Green Line),41120,True,False,False,True,False,False,False,False,False,False,"41.831677, -87.625826",41.831677,-87.625826,60616,35,60616,12634
30213,N,35-Bronzeville-IIT (Harlem-bound),35th-Bronzeville-IIT,35th-Bronzeville-IIT (Green Line),41120,True,False,False,True,False,False,False,False,False,False,"41.831677, -87.625826",41.831677,-87.625826,60616,60,60616,11701
30194,S,Cermak-Chinatown (95th-bound),Cermak-Chinatown,Cermak-Chinatown (Red Line),41000,True,True,False,False,False,False,False,False,False,False,"41.853206, -87.630968",41.853206,-87.630968,60616,28,60616,147
30194,S,Cermak-Chinatown (95th-bound),Cermak-Chinatown,Cermak-Chinatown (Red Line),41000,True,True,False,False,False,False,False,False,False,False,"41.853206, -87.630968",41.853206,-87.630968,60616,31,60616,1389
30194,S,Cermak-Chinatown (95th-bound),Cermak-Chinatown,Cermak-Chinatown (Red Line),41000,True,True,False,False,False,False,False,False,False,False,"41.853206, -87.630968",41.853206,-87.630968,60616,33,60616,10077
30194,S,Cermak-Chinatown (95th-bound),Cermak-Chinatown,Cermak-Chinatown (Red Line),41000,True,True,False,False,False,False,False,False,False,False,"41.853206, -87.630968",41.853206,-87.630968,60616,34,60616,12485
30194,S,Cermak-Chinatown (95th-bound),Cermak-Chinatown,Cermak-Chinatown (Red Line),41000,True,True,False,False,False,False,False,False,False,False,"41.853206, -87.630968",41.853206,-87.630968,60616,35,60616,12634
30194,S,Cermak-Chinatown (95th-bound),Cermak-Chinatown,Cermak-Chinatown (Red Line),41000,True,True,False,False,False,False,False,False,False,False,"41.853206, -87.630968",41.853206,-87.630968,60616,60,60616,11701
30193,N,Cermak-Chinatown (Howard-bound),Cermak-Chinatown,Cermak-Chinatown (Red Line),41000,True,True,False,False,False,False,False,False,False,False,"41.853206, -87.630968",41.853206,-87.630968,60616,28,60616,147
30193,N,Cermak-Chinatown (Howard-bound),Cermak-Chinatown,Cermak-Chinatown (Red Line),41000,True,True,False,False,False,False,False,False,False,False,"41.853206, -87.630968",41.853206,-87.630968,60616,31,60616,1389
30193,N,Cermak-Chinatown (Howard-bound),Cermak-Chinatown,Cermak-Chinatown (Red Line),41000,True,True,False,False,False,False,False,False,False,False,"41.853206, -87.630968",41.853206,-87.630968,60616,33,60616,10077
30193,N,Cermak-Chinatown (Howard-bound),Cermak-Chinatown,Cermak-Chinatown (Red Line),41000,True,True,False,False,False,False,False,False,False,False,"41.853206, -87.630968",41.853206,-87.630968,60616,34,60616,12485
30193,N,Cermak-Chinatown (Howard-bound),Cermak-Chinatown,Cermak-Chinatown (Red Line),41000,True,True,False,False,False,False,False,False,False,False,"41.853206, -87.630968",41.853206,-87.630968,60616,35,60616,12634
30193,N,Cermak-Chinatown (Howard-bound),Cermak-Chinatown,Cermak-Chinatown (Red Line),41000,True,True,False,False,False,False,False,False,False,False,"41.853206, -87.630968",41.853206,-87.630968,60616,60,60616,11701
30037,S,Sox-35th (95th-bound),Sox-35th,Sox-35th (Red Line),40190,True,True,False,False,False,False,False,False,False,False,"41.831191, -87.630636",41.831191,-87.630636,60616,28,60616,147
30037,S,Sox-35th (95th-bound),Sox-35th,Sox-35th (Red Line),40190,True,True,False,False,False,False,False,False,False,False,"41.831191, -87.630636",41.831191,-87.630636,60616,31,60616,1389
30037,S,Sox-35th (95th-bound),Sox-35th,Sox-35th (Red Line),40190,True,True,False,False,False,False,False,False,False,False,"41.831191, -87.630636",41.831191,-87.630636,60616,33,60616,10077
30037,S,Sox-35th (95th-bound),Sox-35th,Sox-35th (Red Line),40190,True,True,False,False,False,False,False,False,False,False,"41.831191, -87.630636",41.831191,-87.630636,60616,34,60616,12485
30037,S,Sox-35th (95th-bound),Sox-35th,Sox-35th (Red Line),40190,True,True,False,False,False,False,False,False,False,False,"41.831191, -87.630636",41.831191,-87.630636,60616,35,60616,12634
30037,S,Sox-35th (95th-bound),Sox-35th,Sox-35th (Red Line),40190,True,True,False,False,False,False,False,False,False,False,"41.831191, -87.630636",41.831191,-87.630636,60616,60,60616,11701
30036,N,Sox-35th (Howard-bound),Sox-35th,Sox-35th (Red Line),40190,True,True,False,False,False,False,False,False,False,False,"41.831191, -87.630636",41.831191,-87.630636,60616,28,60616,147
30036,N,Sox-35th (Howard-bound),Sox-35th,Sox-35th (Red Line),40190,True,True,False,False,False,False,False,False,False,False,"41.831191, -87.630636",41.831191,-87.630636,60616,31,60616,1389
30036,N,Sox-35th (Howard-bound),Sox-35th,Sox-35th (Red Line),40190,True,True,False,False,False,False,False,False,False,False,"41.831191, -87.630636",41.831191,-87.630636,60616,33,60616,10077
30036,N,Sox-35th (Howard-bound),Sox-35th,Sox-35th (Red Line),40190,True,True,False,False,False,False,False,False,False,False,"41.831191, -87.630636",41.831191,-87.630636,60616,34,60616,12485
30036,N,Sox-35th (Howard-bound),Sox-35th,Sox-35th (Red Line),40190,True,True,False,False,False,False,False,False,False,False,"41.831191, -87.630636",41.831191,-87.630636,60616,35,60616,12634
30036,N,Sox-35th (Howard-bound),Sox-35th,Sox-35th (Red Line),40190,True,True,False,False,False,False,False,False,False,False,"41.831191, -87.630636",41.831191,-87.630636,60616,60,60616,11701
30381,N,Cermak-McCormick Place (Harlem-bound),Cermak-McCormick Place,Cermak-McCormick Place (Green Line),41690,True,False,False,True,False,False,False,False,False,False,"41.853115, -87.626402",41.853115,-87.626402,60616,28,60616,147
30381,N,Cermak-McCormick Place (Harlem-bound),Cermak-McCormick Place,Cermak-McCormick Place (Green Line),41690,True,False,False,True,False,False,False,False,False,False,"41.853115, -87.626402",41.853115,-87.626402,60616,31,60616,1389
30381,N,Cermak-McCormick Place (Harlem-bound),Cermak-McCormick Place,Cermak-McCormick Place (Green Line),41690,True,False,False,True,False,False,False,False,False,False,"41.853115, -87.626402",41.853115,-87.626402,60616,33,60616,10077
30381,N,Cermak-McCormick Place (Harlem-bound),Cermak-McCormick Place,Cermak-McCormick Place (Green Line),41690,True,False,False,True,False,False,False,False,False,False,"41.853115, -87.626402",41.853115,-87.626402,60616,34,60616,12485
30381,N,Cermak-McCormick Place (Harlem-bound),Cermak-McCormick Place,Cermak-McCormick Place (Green Line),41690,True,False,False,True,False,False,False,False,False,False,"41.853115, -87.626402",41.853115,-87.626402,60616,35,60616,12634
30381,N,Cermak-McCormick Place (Harlem-bound),Cermak-McCormick Place,Cermak-McCormick Place (Green Line),41690,True,False,False,True,False,False,False,False,False,False,"41.853115, -87.626402",41.853115,-87.626402,60616,60,60616,11701
30382,S,Cermak-McCormick Place (63rd-bound),Cermak-McCormick Place,Cermak-McCormick Place (Green Line),41690,True,False,False,True,False,False,False,False,False,False,"41.853115, -87.626402",41.853115,-87.626402,60616,28,60616,147
30382,S,Cermak-McCormick Place (63rd-bound),Cermak-McCormick Place,Cermak-McCormick Place (Green Line),41690,True,False,False,True,False,False,False,False,False,False,"41.853115, -87.626402",41.853115,-87.626402,60616,31,60616,1389
30382,S,Cermak-McCormick Place (63rd-bound),Cermak-McCormick Place,Cermak-McCormick Place (Green Line),41690,True,False,False,True,False,False,False,False,False,False,"41.853115, -87.626402",41.853115,-87.626402,60616,33,60616,10077
30382,S,Cermak-McCormick Place (63rd-bound),Cermak-McCormick Place,Cermak-McCormick Place (Green Line),41690,True,False,False,True,False,False,False,False,False,False,"41.853115, -87.626402",41.853115,-87.626402,60616,34,60616,12485
30382,S,Cermak-McCormick Place (63rd-bound),Cermak-McCormick Place,Cermak-McCormick Place (Green Line),41690,True,False,False,True,False,False,False,False,False,False,"41.853115, -87.626402",41.853115,-87.626402,60616,35,60616,12634
30382,S,Cermak-McCormick Place (63rd-bound),Cermak-McCormick Place,Cermak-McCormick Place (Green Line),41690,True,False,False,True,False,False,False,False,False,False,"41.853115, -87.626402",41.853115,-87.626402,60616,60,60616,11701
30246,S,43rd (63rd-bound),43rd,43rd (Green Line),41270,True,False,False,True,False,False,False,False,False,False,"41.816462, -87.619021",41.816462,-87.619021,60653,35,60653,5218
30246,S,43rd (63rd-bound),43rd,43rd (Green Line),41270,True,False,False,True,False,False,False,False,False,False,"41.816462, -87.619021",41.816462,-87.619021,60653,36,60653,5918
30246,S,43rd (63rd-bound),43rd,43rd (Green Line),41270,True,False,False,True,False,False,False,False,False,False,"41.816462, -87.619021",41.816462,-87.619021,60653,38,60653,12751
30246,S,43rd (63rd-bound),43rd,43rd (Green Line),41270,True,False,False,True,False,False,False,False,False,False,"41.816462, -87.619021",41.816462,-87.619021,60653,39,60653,6021
30245,N,43rd (Harlem-bound),43rd,43rd (Green Line),41270,True,False,False,True,False,False,False,False,False,False,"41.816462, -87.619021",41.816462,-87.619021,60653,35,60653,5218
30245,N,43rd (Harlem-bound),43rd,43rd (Green Line),41270,True,False,False,True,False,False,False,False,False,False,"41.816462, -87.619021",41.816462,-87.619021,60653,36,60653,5918
30245,N,43rd (Harlem-bound),43rd,43rd (Green Line),41270,True,False,False,True,False,False,False,False,False,False,"41.816462, -87.619021",41.816462,-87.619021,60653,38,60653,12751
30245,N,43rd (Harlem-bound),43rd,43rd (Green Line),41270,True,False,False,True,False,False,False,False,False,False,"41.816462, -87.619021",41.816462,-87.619021,60653,39,60653,6021
30059,S,Indiana (63rd-bound),Indiana,Indiana (Green Line),40300,True,False,False,True,False,False,False,False,False,False,"41.821732, -87.621371",41.821732,-87.621371,60653,35,60653,5218
30059,S,Indiana (63rd-bound),Indiana,Indiana (Green Line),40300,True,False,False,True,False,False,False,False,False,False,"41.821732, -87.621371",41.821732,-87.621371,60653,36,60653,5918
30059,S,Indiana (63rd-bound),Indiana,Indiana (Green Line),40300,True,False,False,True,False,False,False,False,False,False,"41.821732, -87.621371",41.821732,-87.621371,60653,38,60653,12751
30059,S,Indiana (63rd-bound),Indiana,Indiana (Green Line),40300,True,False,False,True,False,False,False,False,False,False,"41.821732, -87.621371",41.821732,-87.621371,60653,39,60653,6021
30058,N,Indiana (Harlem-bound),Indiana,Indiana (Green Line),40300,True,False,False,True,False,False,False,False,False,False,"41.821732, -87.621371",41.821732,-87.621371,60653,35,60653,5218
30058,N,Indiana (Harlem-bound),Indiana,Indiana (Green Line),40300,True,False,False,True,False,False,False,False,False,False,"41.821732, -87.621371",41.821732,-87.621371,60653,36,60653,5918
30058,N,Indiana (Harlem-bound),Indiana,Indiana (Green Line),40300,True,False,False,True,False,False,False,False,False,False,"41.821732, -87.621371",41.821732,-87.621371,60653,38,60653,12751
30058,N,Indiana (Harlem-bound),Indiana,Indiana (Green Line),40300,True,False,False,True,False,False,False,False,False,False,"41.821732, -87.621371",41.821732,-87.621371,60653,39,60653,6021
30210,S,47th (63rd-bound),47th,47th (Green Line),41080,True,False,False,True,False,False,False,False,False,False,"41.809209, -87.618826",41.809209,-87.618826,60653,35,60653,5218
30210,S,47th (63rd-bound),47th,47th (Green Line),41080,True,False,False,True,False,False,False,False,False,False,"41.809209, -87.618826",41.809209,-87.618826,60653,36,60653,5918
30210,S,47th (63rd-bound),47th,47th (Green Line),41080,True,False,False,True,False,False,False,False,False,False,"41.809209, -87.618826",41.809209,-87.618826,60653,38,60653,12751
30210,S,47th (63rd-bound),47th,47th (Green Line),41080,True,False,False,True,False,False,False,False,False,False,"41.809209, -87.618826",41.809209,-87.618826,60653,39,60653,6021
30209,N,47th (Harlem-bound),47th,47th (Green Line),41080,True,False,False,True,False,False,False,False,False,False,"41.809209, -87.618826",41.809209,-87.618826,60653,35,60653,5218
30209,N,47th (Harlem-bound),47th,47th (Green Line),41080,True,False,False,True,False,False,False,False,False,False,"41.809209, -87.618826",41.809209,-87.618826,60653,36,60653,5918
30209,N,47th (Harlem-bound),47th,47th (Green Line),41080,True,False,False,True,False,False,False,False,False,False,"41.809209, -87.618826",41.809209,-87.618826,60653,38,60653,12751
30209,N,47th (Harlem-bound),47th,47th (Green Line),41080,True,False,False,True,False,False,False,False,False,False,"41.809209, -87.618826",41.809209,-87.618826,60653,39,60653,6021
30025,S,51st (63rd-bound),51st,51st (Green Line),40130,True,False,False,True,False,False,False,False,False,False,"41.80209, -87.618487",41.80209,-87.618487,60615,38,60615,8366
30025,S,51st (63rd-bound),51st,51st (Green Line),40130,True,False,False,True,False,False,False,False,False,False,"41.80209, -87.618487",41.80209,-87.618487,60615,39,60615,11820
30025,S,51st (63rd-bound),51st,51st (Green Line),40130,True,False,False,True,False,False,False,False,False,False,"41.80209, -87.618487",41.80209,-87.618487,60615,40,60615,3269
30025,S,51st (63rd-bound),51st,51st (Green Line),40130,True,False,False,True,False,False,False,False,False,False,"41.80209, -87.618487",41.80209,-87.618487,60615,41,60615,17148
30024,N,51st (Harlem-bound),51st,51st (Green Line),40130,True,False,False,True,False,False,False,False,False,False,"41.80209, -87.618487",41.80209,-87.618487,60615,38,60615,8366
30024,N,51st (Harlem-bound),51st,51st (Green Line),40130,True,False,False,True,False,False,False,False,False,False,"41.80209, -87.618487",41.80209,-87.618487,60615,39,60615,11820
30024,N,51st (Harlem-bound),51st,51st (Green Line),40130,True,False,False,True,False,False,False,False,False,False,"41.80209, -87.618487",41.80209,-87.618487,60615,40,60615,3269
30024,N,51st (Harlem-bound),51st,51st (Green Line),40130,True,False,False,True,False,False,False,False,False,False,"41.80209, -87.618487",41.80209,-87.618487,60615,41,60615,17148
30100,S,Garfield (63rd-bound),Garfield,Garfield (Green Line),40510,True,False,False,True,False,False,False,False,False,False,"41.795172, -87.618327",41.795172,-87.618327,60615,38,60615,8366
30100,S,Garfield (63rd-bound),Garfield,Garfield (Green Line),40510,True,False,False,True,False,False,False,False,False,False,"41.795172, -87.618327",41.795172,-87.618327,60615,39,60615,11820
30100,S,Garfield (63rd-bound),Garfield,Garfield (Green Line),40510,True,False,False,True,False,False,False,False,False,False,"41.795172, -87.618327",41.795172,-87.618327,60615,40,60615,3269
30100,S,Garfield (63rd-bound),Garfield,Garfield (Green Line),40510,True,False,False,True,False,False,False,False,False,False,"41.795172, -87.618327",41.795172,-87.618327,60615,41,60615,17148
30099,N,Garfield (Harlem-bound),Garfield,Garfield (Green Line),40510,True,False,False,True,False,False,False,False,False,False,"41.795172, -87.618327",41.795172,-87.618327,60615,38,60615,8366
30099,N,Garfield (Harlem-bound),Garfield,Garfield (Green Line),40510,True,False,False,True,False,False,False,False,False,False,"41.795172, -87.618327",41.795172,-87.618327,60615,39,60615,11820
30099,N,Garfield (Harlem-bound),Garfield,Garfield (Green Line),40510,True,False,False,True,False,False,False,False,False,False,"41.795172, -87.618327",41.795172,-87.618327,60615,40,60615,3269
30099,N,Garfield (Harlem-bound),Garfield,Garfield (Green Line),40510,True,False,False,True,False,False,False,False,False,False,"41.795172, -87.618327",41.795172,-87.618327,60615,41,60615,17148
30113,E,54th/Cermak (Loop-bound),54th/Cermak,54th/Cermak (Pink Line),40580,True,False,False,False,False,False,False,False,True,False,"41.85177331, -87.75669201",41.85177331,-87.75669201,60804,25,60804,0
30113,E,54th/Cermak (Loop-bound),54th/Cermak,54th/Cermak (Pink Line),40580,True,False,False,False,False,False,False,False,True,False,"41.85177331, -87.75669201",41.85177331,-87.75669201,60804,56,60804,0
30114,W,54th/Cermak (Terminal arrival),54th/Cermak,54th/Cermak (Pink Line),40580,True,False,False,False,False,False,False,False,True,False,"41.85177331, -87.75669201",41.85177331,-87.75669201,60804,25,60804,0
30114,W,54th/Cermak (Terminal arrival),54th/Cermak,54th/Cermak (Pink Line),40580,True,False,False,False,False,False,False,False,True,False,"41.85177331, -87.75669201",41.85177331,-87.75669201,60804,56,60804,0
30083,W,Cicero (54th/Cermak-bound),Cicero,Cicero (Pink Line),40420,True,False,False,False,False,False,False,False,True,False,"41.85182, -87.745336",41.85182,-87.745336,60804,25,60804,0
30083,W,Cicero (54th/Cermak-bound),Cicero,Cicero (Pink Line),40420,True,False,False,False,False,False,False,False,True,False,"41.85182, -87.745336",41.85182,-87.745336,60804,56,60804,0
30082,E,Cicero (Loop-bound),Cicero,Cicero (Pink Line),40420,True,False,False,False,False,False,False,False,True,False,"41.85182, -87.745336",41.85182,-87.745336,60804,25,60804,0
30082,E,Cicero (Loop-bound),Cicero,Cicero (Pink Line),40420,True,False,False,False,False,False,False,False,True,False,"41.85182, -87.745336",41.85182,-87.745336,60804,56,60804,0
30192,S,69th (95th-bound),69th,69th (Red Line),40990,True,True,False,False,False,False,False,False,False,False,"41.768367, -87.625724",41.768367,-87.625724,60621,40,60621,469
30192,S,69th (95th-bound),69th,69th (Red Line),40990,True,True,False,False,False,False,False,False,False,False,"41.768367, -87.625724",41.768367,-87.625724,60621,68,60621,29777
30192,S,69th (95th-bound),69th,69th (Red Line),40990,True,True,False,False,False,False,False,False,False,False,"41.768367, -87.625724",41.768367,-87.625724,60621,69,60621,5666
30191,N,69th (Howard-bound),69th,69th (Red Line),40990,True,True,False,False,False,False,False,False,False,False,"41.768367, -87.625724",41.768367,-87.625724,60621,40,60621,469
30191,N,69th (Howard-bound),69th,69th (Red Line),40990,True,True,False,False,False,False,False,False,False,False,"41.768367, -87.625724",41.768367,-87.625724,60621,68,60621,29777
30191,N,69th (Howard-bound),69th,69th (Red Line),40990,True,True,False,False,False,False,False,False,False,False,"41.768367, -87.625724",41.768367,-87.625724,60621,69,60621,5666
30184,W,Halsted/63rd (Ashland-bound),Halsted,Halsted (Green Line),40940,True,False,False,True,False,False,False,False,False,False,"41.778943, -87.644244",41.778943,-87.644244,60621,40,60621,469
30184,W,Halsted/63rd (Ashland-bound),Halsted,Halsted (Green Line),40940,True,False,False,True,False,False,False,False,False,False,"41.778943, -87.644244",41.778943,-87.644244,60621,68,60621,29777
30184,W,Halsted/63rd (Ashland-bound),Halsted,Halsted (Green Line),40940,True,False,False,True,False,False,False,False,False,False,"41.778943, -87.644244",41.778943,-87.644244,60621,69,60621,5666
30183,E,Halsted/63rd (Harlem-bound),Halsted,Halsted (Green Line),40940,True,False,False,True,False,False,False,False,False,False,"41.778943, -87.644244",41.778943,-87.644244,60621,40,60621,469
30183,E,Halsted/63rd (Harlem-bound),Halsted,Halsted (Green Line),40940,True,False,False,True,False,False,False,False,False,False,"41.778943, -87.644244",41.778943,-87.644244,60621,68,60621,29777
30183,E,Halsted/63rd (Harlem-bound),Halsted,Halsted (Green Line),40940,True,False,False,True,False,False,False,False,False,False,"41.778943, -87.644244",41.778943,-87.644244,60621,69,60621,5666
30178,S,63rd (95th-bound),63rd,63rd (Red Line),40910,True,True,False,False,False,False,False,False,False,False,"41.780536, -87.630952",41.780536,-87.630952,60621,40,60621,469
30178,S,63rd (95th-bound),63rd,63rd (Red Line),40910,True,True,False,False,False,False,False,False,False,False,"41.780536, -87.630952",41.780536,-87.630952,60621,68,60621,29777
30178,S,63rd (95th-bound),63rd,63rd (Red Line),40910,True,True,False,False,False,False,False,False,False,False,"41.780536, -87.630952",41.780536,-87.630952,60621,69,60621,5666
30177,N,63rd (Howard-bound),63rd,63rd (Red Line),40910,True,True,False,False,False,False,False,False,False,False,"41.780536, -87.630952",41.780536,-87.630952,60621,40,60621,469
30177,N,63rd (Howard-bound),63rd,63rd (Red Line),40910,True,True,False,False,False,False,False,False,False,False,"41.780536, -87.630952",41.780536,-87.630952,60621,68,60621,29777
30177,N,63rd (Howard-bound),63rd,63rd (Red Line),40910,True,True,False,False,False,False,False,False,False,False,"41.780536, -87.630952",41.780536,-87.630952,60621,69,60621,5666
30047,S,79th (95th-bound),79th,79th (Red Line),40240,True,True,False,False,False,False,False,False,False,False,"41.750419, -87.625112",41.750419,-87.625112,60620,44,60620,3304
30047,S,79th (95th-bound),79th,79th (Red Line),40240,True,True,False,False,False,False,False,False,False,False,"41.750419, -87.625112",41.750419,-87.625112,60620,49,60620,3392
30047,S,79th (95th-bound),79th,79th (Red Line),40240,True,True,False,False,False,False,False,False,False,False,"41.750419, -87.625112",41.750419,-87.625112,60620,68,60620,328
30047,S,79th (95th-bound),79th,79th (Red Line),40240,True,True,False,False,False,False,False,False,False,False,"41.750419, -87.625112",41.750419,-87.625112,60620,69,60620,2847
30047,S,79th (95th-bound),79th,79th (Red Line),40240,True,True,False,False,False,False,False,False,False,False,"41.750419, -87.625112",41.750419,-87.625112,60620,70,60620,1085
30047,S,79th (95th-bound),79th,79th (Red Line),40240,True,True,False,False,False,False,False,False,False,False,"41.750419, -87.625112",41.750419,-87.625112,60620,71,60620,48743
30047,S,79th (95th-bound),79th,79th (Red Line),40240,True,True,False,False,False,False,False,False,False,False,"41.750419, -87.625112",41.750419,-87.625112,60620,72,60620,4
30047,S,79th (95th-bound),79th,79th (Red Line),40240,True,True,False,False,False,False,False,False,False,False,"41.750419, -87.625112",41.750419,-87.625112,60620,73,60620,12513
30046,N,79th (Howard-bound),79th,79th (Red Line),40240,True,True,False,False,False,False,False,False,False,False,"41.750419, -87.625112",41.750419,-87.625112,60620,44,60620,3304
30046,N,79th (Howard-bound),79th,79th (Red Line),40240,True,True,False,False,False,False,False,False,False,False,"41.750419, -87.625112",41.750419,-87.625112,60620,49,60620,3392
30046,N,79th (Howard-bound),79th,79th (Red Line),40240,True,True,False,False,False,False,False,False,False,False,"41.750419, -87.625112",41.750419,-87.625112,60620,68,60620,328
30046,N,79th (Howard-bound),79th,79th (Red Line),40240,True,True,False,False,False,False,False,False,False,False,"41.750419, -87.625112",41.750419,-87.625112,60620,69,60620,2847
30046,N,79th (Howard-bound),79th,79th (Red Line),40240,True,True,False,False,False,False,False,False,False,False,"41.750419, -87.625112",41.750419,-87.625112,60620,70,60620,1085
30046,N,79th (Howard-bound),79th,79th (Red Line),40240,True,True,False,False,False,False,False,False,False,False,"41.750419, -87.625112",41.750419,-87.625112,60620,71,60620,48743
30046,N,79th (Howard-bound),79th,79th (Red Line),40240,True,True,False,False,False,False,False,False,False,False,"41.750419, -87.625112",41.750419,-87.625112,60620,72,60620,4
30046,N,79th (Howard-bound),79th,79th (Red Line),40240,True,True,False,False,False,False,False,False,False,False,"41.750419, -87.625112",41.750419,-87.625112,60620,73,60620,12513
30275,N,87th (Howard-bound),87th,87th (Red Line),41430,True,True,False,False,False,False,False,False,False,False,"41.735372, -87.624717",41.735372,-87.624717,60620,44,60620,3304
30275,N,87th (Howard-bound),87th,87th (Red Line),41430,True,True,False,False,False,False,False,False,False,False,"41.735372, -87.624717",41.735372,-87.624717,60620,49,60620,3392
30275,N,87th (Howard-bound),87th,87th (Red Line),41430,True,True,False,False,False,False,False,False,False,False,"41.735372, -87.624717",41.735372,-87.624717,60620,68,60620,328
30275,N,87th (Howard-bound),87th,87th (Red Line),41430,True,True,False,False,False,False,False,False,False,False,"41.735372, -87.624717",41.735372,-87.624717,60620,69,60620,2847
30275,N,87th (Howard-bound),87th,87th (Red Line),41430,True,True,False,False,False,False,False,False,False,False,"41.735372, -87.624717",41.735372,-87.624717,60620,70,60620,1085
30275,N,87th (Howard-bound),87th,87th (Red Line),41430,True,True,False,False,False,False,False,False,False,False,"41.735372, -87.624717",41.735372,-87.624717,60620,71,60620,48743
30275,N,87th (Howard-bound),87th,87th (Red Line),41430,True,True,False,False,False,False,False,False,False,False,"41.735372, -87.624717",41.735372,-87.624717,60620,72,60620,4
30275,N,87th (Howard-bound),87th,87th (Red Line),41430,True,True,False,False,False,False,False,False,False,False,"41.735372, -87.624717",41.735372,-87.624717,60620,73,60620,12513
30276,S,87th (95th-bound),87th,87th (Red Line),41430,True,True,False,False,False,False,False,False,False,False,"41.735372, -87.624717",41.735372,-87.624717,60620,44,60620,3304
30276,S,87th (95th-bound),87th,87th (Red Line),41430,True,True,False,False,False,False,False,False,False,False,"41.735372, -87.624717",41.735372,-87.624717,60620,49,60620,3392
30276,S,87th (95th-bound),87th,87th (Red Line),41430,True,True,False,False,False,False,False,False,False,False,"41.735372, -87.624717",41.735372,-87.624717,60620,68,60620,328
30276,S,87th (95th-bound),87th,87th (Red Line),41430,True,True,False,False,False,False,False,False,False,False,"41.735372, -87.624717",41.735372,-87.624717,60620,69,60620,2847
30276,S,87th (95th-bound),87th,87th (Red Line),41430,True,True,False,False,False,False,False,False,False,False,"41.735372, -87.624717",41.735372,-87.624717,60620,70,60620,1085
30276,S,87th (95th-bound),87th,87th (Red Line),41430,True,True,False,False,False,False,False,False,False,False,"41.735372, -87.624717",41.735372,-87.624717,60620,71,60620,48743
30276,S,87th (95th-bound),87th,87th (Red Line),41430,True,True,False,False,False,False,False,False,False,False,"41.735372, -87.624717",41.735372,-87.624717,60620,72,60620,4
30276,S,87th (95th-bound),87th,87th (Red Line),41430,True,True,False,False,False,False,False,False,False,False,"41.735372, -87.624717",41.735372,-87.624717,60620,73,60620,12513
30089,S,95th/Dan Ryan (95th-bound),95th/Dan Ryan,95th/Dan Ryan (Red Line),40450,True,True,False,False,False,False,False,False,False,False,"41.722377, -87.624342",41.722377,-87.624342,60628,49,60628,38126
30089,S,95th/Dan Ryan (95th-bound),95th/Dan Ryan,95th/Dan Ryan (Red Line),40450,True,True,False,False,False,False,False,False,False,False,"41.722377, -87.624342",41.722377,-87.624342,60628,50,60628,7278
30089,S,95th/Dan Ryan (95th-bound),95th/Dan Ryan,95th/Dan Ryan (Red Line),40450,True,True,False,False,False,False,False,False,False,False,"41.722377, -87.624342",41.722377,-87.624342,60628,53,60628,22290
30089,S,95th/Dan Ryan (95th-bound),95th/Dan Ryan,95th/Dan Ryan (Red Line),40450,True,True,False,False,False,False,False,False,False,False,"41.722377, -87.624342",41.722377,-87.624342,60628,54,60628,0
30089,S,95th/Dan Ryan (95th-bound),95th/Dan Ryan,95th/Dan Ryan (Red Line),40450,True,True,False,False,False,False,False,False,False,False,"41.722377, -87.624342",41.722377,-87.624342,60628,73,60628,4463
30089,S,95th/Dan Ryan (95th-bound),95th/Dan Ryan,95th/Dan Ryan (Red Line),40450,True,True,False,False,False,False,False,False,False,False,"41.722377, -87.624342",41.722377,-87.624342,60628,75,60628,45
30088,N,95th/Dan Ryan (Howard-bound),95th/Ran Ryan,95th/Ran Ryan (Red Line),40450,True,True,False,False,False,False,False,False,False,False,"41.722377, -87.624342",41.722377,-87.624342,60628,49,60628,38126
30088,N,95th/Dan Ryan (Howard-bound),95th/Ran Ryan,95th/Ran Ryan (Red Line),40450,True,True,False,False,False,False,False,False,False,False,"41.722377, -87.624342",41.722377,-87.624342,60628,50,60628,7278
30088,N,95th/Dan Ryan (Howard-bound),95th/Ran Ryan,95th/Ran Ryan (Red Line),40450,True,True,False,False,False,False,False,False,False,False,"41.722377, -87.624342",41.722377,-87.624342,60628,53,60628,22290
30088,N,95th/Dan Ryan (Howard-bound),95th/Ran Ryan,95th/Ran Ryan (Red Line),40450,True,True,False,False,False,False,False,False,False,False,"41.722377, -87.624342",41.722377,-87.624342,60628,54,60628,0
30088,N,95th/Dan Ryan (Howard-bound),95th/Ran Ryan,95th/Ran Ryan (Red Line),40450,True,True,False,False,False,False,False,False,False,False,"41.722377, -87.624342",41.722377,-87.624342,60628,73,60628,4463
30088,N,95th/Dan Ryan (Howard-bound),95th/Ran Ryan,95th/Ran Ryan (Red Line),40450,True,True,False,False,False,False,False,False,False,False,"41.722377, -87.624342",41.722377,-87.624342,60628,75,60628,45
30132,S,Adams/Wabash (Inner Loop),Adams/Wabash,"Adams/Wabash (Brown, Green, Orange, Pink & Purple Lines)",40680,False,False,False,True,False,False,True,False,True,True,"41.879507, -87.626037",41.879507,-87.626037,60603,32,60603,493
30131,N,Adams/Wabash (Outer Loop),Adams/Wabash,"Adams/Wabash (Brown, Green, Orange, Pink & Purple Lines)",40680,False,False,False,True,True,False,False,False,False,False,"41.879507, -87.626037",41.879507,-87.626037,60603,32,60603,493
30154,S,Monroe (Forest Pk-bound),Monroe,Monroe (Blue Line),40790,False,False,True,False,False,False,False,False,False,False,"41.880703, -87.629378",41.880703,-87.629378,60603,32,60603,493
30212,S,Monroe (95th-bound),Monroe,Monroe (Red Line),41090,False,True,False,False,False,False,False,False,False,False,"41.880745, -87.627696",41.880745,-87.627696,60603,32,60603,493
30211,N,Monroe (Howard-bound),Monroe,Monroe (Red Line),41090,False,True,False,False,False,False,False,False,False,False,"41.880745, -87.627696",41.880745,-87.627696,60603,32,60603,493
30153,N,Monroe (O'Hare-bound),Monroe,Monroe (Blue Line),40790,False,False,True,False,False,False,False,False,False,False,"41.880703, -87.629378",41.880703,-87.629378,60603,32,60603,493
30277,N,Addison (Kimball-bound),Addison,Addison (Brown Line),41440,True,False,False,False,True,False,False,False,False,False,"41.947028, -87.674642",41.947028,-87.674642,60613,03,60613,13161
30277,N,Addison (Kimball-bound),Addison,Addison (Brown Line),41440,True,False,False,False,True,False,False,False,False,False,"41.947028, -87.674642",41.947028,-87.674642,60613,05,60613,3944
30277,N,Addison (Kimball-bound),Addison,Addison (Brown Line),41440,True,False,False,False,True,False,False,False,False,False,"41.947028, -87.674642",41.947028,-87.674642,60613,06,60613,31176
30278,S,Addison (Loop-bound),Addison,Addison (Brown Line),41440,True,False,False,False,True,False,False,False,False,False,"41.947028, -87.674642",41.947028,-87.674642,60613,03,60613,13161
30278,S,Addison (Loop-bound),Addison,Addison (Brown Line),41440,True,False,False,False,True,False,False,False,False,False,"41.947028, -87.674642",41.947028,-87.674642,60613,05,60613,3944
30278,S,Addison (Loop-bound),Addison,Addison (Brown Line),41440,True,False,False,False,True,False,False,False,False,False,"41.947028, -87.674642",41.947028,-87.674642,60613,06,60613,31176
30274,S,Addison (95th-bound),Addison,Addison (Red Line),41420,True,True,False,False,False,False,False,False,False,False,"41.947428, -87.653626",41.947428,-87.653626,60613,03,60613,13161
30274,S,Addison (95th-bound),Addison,Addison (Red Line),41420,True,True,False,False,False,False,False,False,False,False,"41.947428, -87.653626",41.947428,-87.653626,60613,05,60613,3944
30274,S,Addison (95th-bound),Addison,Addison (Red Line),41420,True,True,False,False,False,False,False,False,False,False,"41.947428, -87.653626",41.947428,-87.653626,60613,06,60613,31176
30273,N,Addison (Howard-bound),Addison,Addison (Red Line),41420,True,True,False,False,False,False,False,False,False,False,"41.947428, -87.653626",41.947428,-87.653626,60613,03,60613,13161
30273,N,Addison (Howard-bound),Addison,Addison (Red Line),41420,True,True,False,False,False,False,False,False,False,False,"41.947428, -87.653626",41.947428,-87.653626,60613,05,60613,3944
30273,N,Addison (Howard-bound),Addison,Addison (Red Line),41420,True,True,False,False,False,False,False,False,False,False,"41.947428, -87.653626",41.947428,-87.653626,60613,06,60613,31176
30281,N,Irving Park (Kimball-bound),Irving Park,Irving Park (Brown Line),41460,True,False,False,False,True,False,False,False,False,False,"41.954521, -87.674868",41.954521,-87.674868,60613,03,60613,13161
30281,N,Irving Park (Kimball-bound),Irving Park,Irving Park (Brown Line),41460,True,False,False,False,True,False,False,False,False,False,"41.954521, -87.674868",41.954521,-87.674868,60613,05,60613,3944
30281,N,Irving Park (Kimball-bound),Irving Park,Irving Park (Brown Line),41460,True,False,False,False,True,False,False,False,False,False,"41.954521, -87.674868",41.954521,-87.674868,60613,06,60613,31176
30282,S,Irving Park (Loop-bound),Irving Park,Irving Park (Brown Line),41460,True,False,False,False,True,False,False,False,False,False,"41.954521, -87.674868",41.954521,-87.674868,60613,03,60613,13161
30282,S,Irving Park (Loop-bound),Irving Park,Irving Park (Brown Line),41460,True,False,False,False,True,False,False,False,False,False,"41.954521, -87.674868",41.954521,-87.674868,60613,05,60613,3944
30282,S,Irving Park (Loop-bound),Irving Park,Irving Park (Brown Line),41460,True,False,False,False,True,False,False,False,False,False,"41.954521, -87.674868",41.954521,-87.674868,60613,06,60613,31176
30287,N,Montrose (Kimball-bound),Montrose,Montrose (Brown Line),41500,True,False,False,False,True,False,False,False,False,False,"41.961756, -87.675047",41.961756,-87.675047,60613,03,60613,13161
30287,N,Montrose (Kimball-bound),Montrose,Montrose (Brown Line),41500,True,False,False,False,True,False,False,False,False,False,"41.961756, -87.675047",41.961756,-87.675047,60613,05,60613,3944
30287,N,Montrose (Kimball-bound),Montrose,Montrose (Brown Line),41500,True,False,False,False,True,False,False,False,False,False,"41.961756, -87.675047",41.961756,-87.675047,60613,06,60613,31176
30288,S,Montrose (Loop-bound),Montrose,Montrose (Brown Line),41500,True,False,False,False,True,False,False,False,False,False,"41.961756, -87.675047",41.961756,-87.675047,60613,03,60613,13161
30288,S,Montrose (Loop-bound),Montrose,Montrose (Brown Line),41500,True,False,False,False,True,False,False,False,False,False,"41.961756, -87.675047",41.961756,-87.675047,60613,05,60613,3944
30288,S,Montrose (Loop-bound),Montrose,Montrose (Brown Line),41500,True,False,False,False,True,False,False,False,False,False,"41.961756, -87.675047",41.961756,-87.675047,60613,06,60613,31176
30017,S,Sheridan (95th-bound),Sheridan,Sheridan (Red Line),40080,False,True,False,False,False,False,False,False,False,False,"41.953775, -87.654929",41.953775,-87.654929,60613,03,60613,13161
30017,S,Sheridan (95th-bound),Sheridan,Sheridan (Red Line),40080,False,True,False,False,False,False,False,False,False,False,"41.953775, -87.654929",41.953775,-87.654929,60613,05,60613,3944
30017,S,Sheridan (95th-bound),Sheridan,Sheridan (Red Line),40080,False,True,False,False,False,False,False,False,False,False,"41.953775, -87.654929",41.953775,-87.654929,60613,06,60613,31176
30016,N,Sheridan (Howard-bound),Sheridan,Sheridan (Red Line),40080,False,True,False,False,False,False,False,False,False,False,"41.953775, -87.654929",41.953775,-87.654929,60613,03,60613,13161
30016,N,Sheridan (Howard-bound),Sheridan,Sheridan (Red Line),40080,False,True,False,False,False,False,False,False,False,False,"41.953775, -87.654929",41.953775,-87.654929,60613,05,60613,3944
30016,N,Sheridan (Howard-bound),Sheridan,Sheridan (Red Line),40080,False,True,False,False,False,False,False,False,False,False,"41.953775, -87.654929",41.953775,-87.654929,60613,06,60613,31176
30293,N,Sheridan (Howard-Linden-bound),Sheridan,Sheridan (Red Line),40080,False,False,False,False,False,False,False,False,False,False,"41.953775, -87.654929",41.953775,-87.654929,60613,03,60613,13161
30293,N,Sheridan (Howard-Linden-bound),Sheridan,Sheridan (Red Line),40080,False,False,False,False,False,False,False,False,False,False,"41.953775, -87.654929",41.953775,-87.654929,60613,05,60613,3944
30293,N,Sheridan (Howard-Linden-bound),Sheridan,Sheridan (Red Line),40080,False,False,False,False,False,False,False,False,False,False,"41.953775, -87.654929",41.953775,-87.654929,60613,06,60613,31176
30294,S,Sheridan (Loop-bound),Sheridan,Sheridan (Red Line),40080,False,False,False,False,False,False,False,False,False,False,"41.953775, -87.654929",41.953775,-87.654929,60613,03,60613,13161
30294,S,Sheridan (Loop-bound),Sheridan,Sheridan (Red Line),40080,False,False,False,False,False,False,False,False,False,False,"41.953775, -87.654929",41.953775,-87.654929,60613,05,60613,3944
30294,S,Sheridan (Loop-bound),Sheridan,Sheridan (Red Line),40080,False,False,False,False,False,False,False,False,False,False,"41.953775, -87.654929",41.953775,-87.654929,60613,06,60613,31176
30230,S,Argyle (95th-bound),Argyle,Argyle (Red Line),41200,False,True,False,False,False,False,False,False,False,False,"41.973453, -87.65853",41.973453,-87.65853,60640,03,60640,43201
30230,S,Argyle (95th-bound),Argyle,Argyle (Red Line),41200,False,True,False,False,False,False,False,False,False,False,"41.973453, -87.65853",41.973453,-87.65853,60640,04,60640,5911
30230,S,Argyle (95th-bound),Argyle,Argyle (Red Line),41200,False,True,False,False,False,False,False,False,False,False,"41.973453, -87.65853",41.973453,-87.65853,60640,77,60640,16678
30229,N,Argyle (Howard-bound),Argyle,Argyle (Red Line),41200,False,True,False,False,False,False,False,False,False,False,"41.973453, -87.65853",41.973453,-87.65853,60640,03,60640,43201
30229,N,Argyle (Howard-bound),Argyle,Argyle (Red Line),41200,False,True,False,False,False,False,False,False,False,False,"41.973453, -87.65853",41.973453,-87.65853,60640,04,60640,5911
30229,N,Argyle (Howard-bound),Argyle,Argyle (Red Line),41200,False,True,False,False,False,False,False,False,False,False,"41.973453, -87.65853",41.973453,-87.65853,60640,77,60640,16678
30067,S,Berwyn (95th-bound),Berwyn,Berwyn (Red Line),40340,False,True,False,False,False,False,False,False,False,False,"41.977984, -87.658668",41.977984,-87.658668,60640,03,60640,43201
30067,S,Berwyn (95th-bound),Berwyn,Berwyn (Red Line),40340,False,True,False,False,False,False,False,False,False,False,"41.977984, -87.658668",41.977984,-87.658668,60640,04,60640,5911
30067,S,Berwyn (95th-bound),Berwyn,Berwyn (Red Line),40340,False,True,False,False,False,False,False,False,False,False,"41.977984, -87.658668",41.977984,-87.658668,60640,77,60640,16678
30066,N,Berwyn (Howard-bound),Berwyn,Berwyn (Red Line),40340,False,True,False,False,False,False,False,False,False,False,"41.977984, -87.658668",41.977984,-87.658668,60640,03,60640,43201
30066,N,Berwyn (Howard-bound),Berwyn,Berwyn (Red Line),40340,False,True,False,False,False,False,False,False,False,False,"41.977984, -87.658668",41.977984,-87.658668,60640,04,60640,5911
30066,N,Berwyn (Howard-bound),Berwyn,Berwyn (Red Line),40340,False,True,False,False,False,False,False,False,False,False,"41.977984, -87.658668",41.977984,-87.658668,60640,77,60640,16678
30150,S,Lawrence (95th-bound),Lawrence,Lawrence (Red Line),40770,False,True,False,False,False,False,False,False,False,False,"41.969139, -87.658493",41.969139,-87.658493,60640,03,60640,43201
30150,S,Lawrence (95th-bound),Lawrence,Lawrence (Red Line),40770,False,True,False,False,False,False,False,False,False,False,"41.969139, -87.658493",41.969139,-87.658493,60640,04,60640,5911
30150,S,Lawrence (95th-bound),Lawrence,Lawrence (Red Line),40770,False,True,False,False,False,False,False,False,False,False,"41.969139, -87.658493",41.969139,-87.658493,60640,77,60640,16678
30149,N,Lawrence (Howard-bound),Lawrence,Lawrence (Red Line),40770,False,True,False,False,False,False,False,False,False,False,"41.969139, -87.658493",41.969139,-87.658493,60640,03,60640,43201
30149,N,Lawrence (Howard-bound),Lawrence,Lawrence (Red Line),40770,False,True,False,False,False,False,False,False,False,False,"41.969139, -87.658493",41.969139,-87.658493,60640,04,60640,5911
30149,N,Lawrence (Howard-bound),Lawrence,Lawrence (Red Line),40770,False,True,False,False,False,False,False,False,False,False,"41.969139, -87.658493",41.969139,-87.658493,60640,77,60640,16678
30386,N,Wilson (Linden-bound),Wilson,Wilson (Red & Purple Lines),40540,True,False,False,False,False,False,True,False,False,False,"41.964273, -87.657588",41.964273,-87.657588,60640,03,60640,43201
30386,N,Wilson (Linden-bound),Wilson,Wilson (Red & Purple Lines),40540,True,False,False,False,False,False,True,False,False,False,"41.964273, -87.657588",41.964273,-87.657588,60640,04,60640,5911
30386,N,Wilson (Linden-bound),Wilson,Wilson (Red & Purple Lines),40540,True,False,False,False,False,False,True,False,False,False,"41.964273, -87.657588",41.964273,-87.657588,60640,77,60640,16678
30105,N,Wilson (Howard-bound),Wilson,Wilson (Red & Purple Lines),40540,True,True,False,False,False,False,False,False,False,False,"41.964273, -87.657588",41.964273,-87.657588,60640,03,60640,43201
30105,N,Wilson (Howard-bound),Wilson,Wilson (Red & Purple Lines),40540,True,True,False,False,False,False,False,False,False,False,"41.964273, -87.657588",41.964273,-87.657588,60640,04,60640,5911
30105,N,Wilson (Howard-bound),Wilson,Wilson (Red & Purple Lines),40540,True,True,False,False,False,False,False,False,False,False,"41.964273, -87.657588",41.964273,-87.657588,60640,77,60640,16678
30106,S,Wilson (95th-bound),Wilson,Wilson (Red & Purple Lines),40540,True,True,False,False,False,False,False,False,False,False,"41.964273, -87.657588",41.964273,-87.657588,60640,03,60640,43201
30106,S,Wilson (95th-bound),Wilson,Wilson (Red & Purple Lines),40540,True,True,False,False,False,False,False,False,False,False,"41.964273, -87.657588",41.964273,-87.657588,60640,04,60640,5911
30106,S,Wilson (95th-bound),Wilson,Wilson (Red & Purple Lines),40540,True,True,False,False,False,False,False,False,False,False,"41.964273, -87.657588",41.964273,-87.657588,60640,77,60640,16678
30385,S,Wilson (Loop-bound),Wilson,Wilson (Red & Purple Lines),40540,True,False,False,False,False,False,True,False,False,False,"41.964273, -87.657588",41.964273,-87.657588,60640,03,60640,43201
30385,S,Wilson (Loop-bound),Wilson,Wilson (Red & Purple Lines),40540,True,False,False,False,False,False,True,False,False,False,"41.964273, -87.657588",41.964273,-87.657588,60640,04,60640,5911
30385,S,Wilson (Loop-bound),Wilson,Wilson (Red & Purple Lines),40540,True,False,False,False,False,False,True,False,False,False,"41.964273, -87.657588",41.964273,-87.657588,60640,77,60640,16678
30127,N,Armitage (Kimball-Linden-bound),Armitage,Armitage (Brown & Purple Lines),40660,True,False,False,False,True,False,True,False,False,False,"41.918217, -87.652644",41.918217,-87.652644,60614,05,60614,301
30127,N,Armitage (Kimball-Linden-bound),Armitage,Armitage (Brown & Purple Lines),40660,True,False,False,False,True,False,True,False,False,False,"41.918217, -87.652644",41.918217,-87.652644,60614,06,60614,1717
30127,N,Armitage (Kimball-Linden-bound),Armitage,Armitage (Brown & Purple Lines),40660,True,False,False,False,True,False,True,False,False,False,"41.918217, -87.652644",41.918217,-87.652644,60614,07,60614,63545
30127,N,Armitage (Kimball-Linden-bound),Armitage,Armitage (Brown & Purple Lines),40660,True,False,False,False,True,False,True,False,False,False,"41.918217, -87.652644",41.918217,-87.652644,60614,22,60614,1054
30128,S,Armitage (Loop-bound),Armitage,Armitage (Brown & Purple Lines),40660,True,False,False,False,True,False,True,False,False,False,"41.918217, -87.652644",41.918217,-87.652644,60614,05,60614,301
30128,S,Armitage (Loop-bound),Armitage,Armitage (Brown & Purple Lines),40660,True,False,False,False,True,False,True,False,False,False,"41.918217, -87.652644",41.918217,-87.652644,60614,06,60614,1717
30128,S,Armitage (Loop-bound),Armitage,Armitage (Brown & Purple Lines),40660,True,False,False,False,True,False,True,False,False,False,"41.918217, -87.652644",41.918217,-87.652644,60614,07,60614,63545
30128,S,Armitage (Loop-bound),Armitage,Armitage (Brown & Purple Lines),40660,True,False,False,False,True,False,True,False,False,False,"41.918217, -87.652644",41.918217,-87.652644,60614,22,60614,1054
30103,N,Diversey (Kimball-Linden-bound),Diversey,Diversey (Brown & Purple Lines),40530,True,False,False,False,True,False,True,False,False,False,"41.932732, -87.653131",41.932732,-87.653131,60614,05,60614,301
30103,N,Diversey (Kimball-Linden-bound),Diversey,Diversey (Brown & Purple Lines),40530,True,False,False,False,True,False,True,False,False,False,"41.932732, -87.653131",41.932732,-87.653131,60614,06,60614,1717
30103,N,Diversey (Kimball-Linden-bound),Diversey,Diversey (Brown & Purple Lines),40530,True,False,False,False,True,False,True,False,False,False,"41.932732, -87.653131",41.932732,-87.653131,60614,07,60614,63545
30103,N,Diversey (Kimball-Linden-bound),Diversey,Diversey (Brown & Purple Lines),40530,True,False,False,False,True,False,True,False,False,False,"41.932732, -87.653131",41.932732,-87.653131,60614,22,60614,1054
30104,S,Diversey (Loop-bound),Diversey,Diversey (Brown & Purple Lines),40530,True,False,False,False,True,False,True,False,False,False,"41.932732, -87.653131",41.932732,-87.653131,60614,05,60614,301
30104,S,Diversey (Loop-bound),Diversey,Diversey (Brown & Purple Lines),40530,True,False,False,False,True,False,True,False,False,False,"41.932732, -87.653131",41.932732,-87.653131,60614,06,60614,1717
30104,S,Diversey (Loop-bound),Diversey,Diversey (Brown & Purple Lines),40530,True,False,False,False,True,False,True,False,False,False,"41.932732, -87.653131",41.932732,-87.653131,60614,07,60614,63545
30104,S,Diversey (Loop-bound),Diversey,Diversey (Brown & Purple Lines),40530,True,False,False,False,True,False,True,False,False,False,"41.932732, -87.653131",41.932732,-87.653131,60614,22,60614,1054
30234,S,Fullerton (95th-bound),Fullerton,"Fullerton (Red, Brown & Purple Lines)",41220,True,True,False,False,False,False,False,False,False,False,"41.925051, -87.652866",41.925051,-87.652866,60614,05,60614,301
30234,S,Fullerton (95th-bound),Fullerton,"Fullerton (Red, Brown & Purple Lines)",41220,True,True,False,False,False,False,False,False,False,False,"41.925051, -87.652866",41.925051,-87.652866,60614,06,60614,1717
30234,S,Fullerton (95th-bound),Fullerton,"Fullerton (Red, Brown & Purple Lines)",41220,True,True,False,False,False,False,False,False,False,False,"41.925051, -87.652866",41.925051,-87.652866,60614,07,60614,63545
30234,S,Fullerton (95th-bound),Fullerton,"Fullerton (Red, Brown & Purple Lines)",41220,True,True,False,False,False,False,False,False,False,False,"41.925051, -87.652866",41.925051,-87.652866,60614,22,60614,1054
30233,N,Fullerton (Howard-bound),Fullerton,"Fullerton (Red, Brown & Purple Lines)",41220,True,True,False,False,False,False,False,False,False,False,"41.925051, -87.652866",41.925051,-87.652866,60614,05,60614,301
30233,N,Fullerton (Howard-bound),Fullerton,"Fullerton (Red, Brown & Purple Lines)",41220,True,True,False,False,False,False,False,False,False,False,"41.925051, -87.652866",41.925051,-87.652866,60614,06,60614,1717
30233,N,Fullerton (Howard-bound),Fullerton,"Fullerton (Red, Brown & Purple Lines)",41220,True,True,False,False,False,False,False,False,False,False,"41.925051, -87.652866",41.925051,-87.652866,60614,07,60614,63545
30233,N,Fullerton (Howard-bound),Fullerton,"Fullerton (Red, Brown & Purple Lines)",41220,True,True,False,False,False,False,False,False,False,False,"41.925051, -87.652866",41.925051,-87.652866,60614,22,60614,1054
30235,N,Fullerton (Kimball-Linden-bound),Fullerton,"Fullerton (Red, Brown & Purple Lines)",41220,True,False,False,False,True,False,True,False,False,False,"41.925051, -87.652866",41.925051,-87.652866,60614,05,60614,301
30235,N,Fullerton (Kimball-Linden-bound),Fullerton,"Fullerton (Red, Brown & Purple Lines)",41220,True,False,False,False,True,False,True,False,False,False,"41.925051, -87.652866",41.925051,-87.652866,60614,06,60614,1717
30235,N,Fullerton (Kimball-Linden-bound),Fullerton,"Fullerton (Red, Brown & Purple Lines)",41220,True,False,False,False,True,False,True,False,False,False,"41.925051, -87.652866",41.925051,-87.652866,60614,07,60614,63545
30235,N,Fullerton (Kimball-Linden-bound),Fullerton,"Fullerton (Red, Brown & Purple Lines)",41220,True,False,False,False,True,False,True,False,False,False,"41.925051, -87.652866",41.925051,-87.652866,60614,22,60614,1054
30236,S,Fullerton (Loop-bound),Fullerton,"Fullerton (Red, Brown & Purple Lines)",41220,True,False,False,False,True,False,True,False,False,False,"41.925051, -87.652866",41.925051,-87.652866,60614,05,60614,301
30236,S,Fullerton (Loop-bound),Fullerton,"Fullerton (Red, Brown & Purple Lines)",41220,True,False,False,False,True,False,True,False,False,False,"41.925051, -87.652866",41.925051,-87.652866,60614,06,60614,1717
30236,S,Fullerton (Loop-bound),Fullerton,"Fullerton (Red, Brown & Purple Lines)",41220,True,False,False,False,True,False,True,False,False,False,"41.925051, -87.652866",41.925051,-87.652866,60614,07,60614,63545
30236,S,Fullerton (Loop-bound),Fullerton,"Fullerton (Red, Brown & Purple Lines)",41220,True,False,False,False,True,False,True,False,False,False,"41.925051, -87.652866",41.925051,-87.652866,60614,22,60614,1054
30056,E,Ashland/63rd (Harlem-bound),Ashland/63rd,Ashland/63rd (Green Line),40290,True,False,False,True,False,False,False,False,False,False,"41.77886, -87.663766",41.77886,-87.663766,60636,63,60636,337
30056,E,Ashland/63rd (Harlem-bound),Ashland/63rd,Ashland/63rd (Green Line),40290,True,False,False,True,False,False,False,False,False,False,"41.77886, -87.663766",41.77886,-87.663766,60636,66,60636,4525
30056,E,Ashland/63rd (Harlem-bound),Ashland/63rd,Ashland/63rd (Green Line),40290,True,False,False,True,False,False,False,False,False,False,"41.77886, -87.663766",41.77886,-87.663766,60636,67,60636,35505
30056,E,Ashland/63rd (Harlem-bound),Ashland/63rd,Ashland/63rd (Green Line),40290,True,False,False,True,False,False,False,False,False,False,"41.77886, -87.663766",41.77886,-87.663766,60636,68,60636,549
30057,W,Ashland/63rd (Terminal arrival),Ashland/63rd,Ashland/63rd (Green Line),40290,True,False,False,True,False,False,False,False,False,False,"41.77886, -87.663766",41.77886,-87.663766,60636,63,60636,337
30057,W,Ashland/63rd (Terminal arrival),Ashland/63rd,Ashland/63rd (Green Line),40290,True,False,False,True,False,False,False,False,False,False,"41.77886, -87.663766",41.77886,-87.663766,60636,66,60636,4525
30057,W,Ashland/63rd (Terminal arrival),Ashland/63rd,Ashland/63rd (Green Line),40290,True,False,False,True,False,False,False,False,False,False,"41.77886, -87.663766",41.77886,-87.663766,60636,67,60636,35505
30057,W,Ashland/63rd (Terminal arrival),Ashland/63rd,Ashland/63rd (Green Line),40290,True,False,False,True,False,False,False,False,False,False,"41.77886, -87.663766",41.77886,-87.663766,60636,68,60636,549
30243,E,Austin (63rd-bound),Austin,Austin (Green Line),41260,False,False,False,True,False,False,False,False,False,False,"41.887293, -87.774135",41.887293,-87.774135,60644,25,60644,48648
30244,W,Austin (Harlem-bound),Austin,Austin (Green Line),41260,False,False,False,True,False,False,False,False,False,False,"41.887293, -87.774135",41.887293,-87.774135,60644,25,60644,48648
30054,E,Central (63rd-bound),Central,Central (Green Line),40280,True,False,False,True,False,False,False,False,False,False,"41.887389, -87.76565",41.887389,-87.76565,60644,25,60644,48648
30055,W,Central (Harlem-bound),Central,Central (Green Line),40280,True,False,False,True,False,False,False,False,False,False,"41.887389, -87.76565",41.887389,-87.76565,60644,25,60644,48648
30188,W,Cicero (Forest Pk-bound),Cicero,Cicero (Blue Line),40970,False,False,True,False,False,False,False,False,False,False,"41.871574, -87.745154",41.871574,-87.745154,60644,25,60644,48648
30187,E,Cicero (O'Hare-bound),Cicero,Cicero (Blue Line),40970,False,False,True,False,False,False,False,False,False,False,"41.871574, -87.745154",41.871574,-87.745154,60644,25,60644,48648
30094,E,Cicero (63rd-bound),Cicero,Cicero (Green Line),40480,True,False,False,True,False,False,False,False,False,False,"41.886519, -87.744698",41.886519,-87.744698,60644,25,60644,48648
30009,W,Cicero (Harlem-bound),Cicero,Cicero (Green Line),40480,True,False,False,True,False,False,False,False,False,False,"41.886519, -87.744698",41.886519,-87.744698,60644,25,60644,48648
30135,E,Laramie (63rd-bound),Laramie,Laramie (Green Line),40700,True,False,False,True,False,False,False,False,False,False,"41.887163, -87.754986",41.887163,-87.754986,60644,25,60644,48648
30136,W,Laramie (Harlem-bound),Laramie,Laramie (Green Line),40700,True,False,False,True,False,False,False,False,False,False,"41.887163, -87.754986",41.887163,-87.754986,60644,25,60644,48648
30013,S,Belmont (O'Hare Branch) (Forest Pk-bound),Belmont,Belmont (Blue Line),40060,False,False,True,False,False,False,False,False,False,False,"41.938132, -87.712359",41.938132,-87.712359,60618,04,60618,90
30013,S,Belmont (O'Hare Branch) (Forest Pk-bound),Belmont,Belmont (Blue Line),40060,False,False,True,False,False,False,False,False,False,False,"41.938132, -87.712359",41.938132,-87.712359,60618,05,60618,23101
30013,S,Belmont (O'Hare Branch) (Forest Pk-bound),Belmont,Belmont (Blue Line),40060,False,False,True,False,False,False,False,False,False,False,"41.938132, -87.712359",41.938132,-87.712359,60618,14,60618,1299
30013,S,Belmont (O'Hare Branch) (Forest Pk-bound),Belmont,Belmont (Blue Line),40060,False,False,True,False,False,False,False,False,False,False,"41.938132, -87.712359",41.938132,-87.712359,60618,16,60618,32502
30013,S,Belmont (O'Hare Branch) (Forest Pk-bound),Belmont,Belmont (Blue Line),40060,False,False,True,False,False,False,False,False,False,False,"41.938132, -87.712359",41.938132,-87.712359,60618,21,60618,34445
30013,S,Belmont (O'Hare Branch) (Forest Pk-bound),Belmont,Belmont (Blue Line),40060,False,False,True,False,False,False,False,False,False,False,"41.938132, -87.712359",41.938132,-87.712359,60618,22,60618,647
30012,N,Belmont (O'Hare Branch) (O'Hare-bound),Belmont,Belmont (Blue Line),40060,False,False,True,False,False,False,False,False,False,False,"41.938132, -87.712359",41.938132,-87.712359,60618,04,60618,90
30012,N,Belmont (O'Hare Branch) (O'Hare-bound),Belmont,Belmont (Blue Line),40060,False,False,True,False,False,False,False,False,False,False,"41.938132, -87.712359",41.938132,-87.712359,60618,05,60618,23101
30012,N,Belmont (O'Hare Branch) (O'Hare-bound),Belmont,Belmont (Blue Line),40060,False,False,True,False,False,False,False,False,False,False,"41.938132, -87.712359",41.938132,-87.712359,60618,14,60618,1299
30012,N,Belmont (O'Hare Branch) (O'Hare-bound),Belmont,Belmont (Blue Line),40060,False,False,True,False,False,False,False,False,False,False,"41.938132, -87.712359",41.938132,-87.712359,60618,16,60618,32502
30012,N,Belmont (O'Hare Branch) (O'Hare-bound),Belmont,Belmont (Blue Line),40060,False,False,True,False,False,False,False,False,False,False,"41.938132, -87.712359",41.938132,-87.712359,60618,21,60618,34445
30012,N,Belmont (O'Hare Branch) (O'Hare-bound),Belmont,Belmont (Blue Line),40060,False,False,True,False,False,False,False,False,False,False,"41.938132, -87.712359",41.938132,-87.712359,60618,22,60618,647
30240,S,Addison (Forest Pk-bound),Addison,Addison (Blue Line),41240,True,False,True,False,False,False,False,False,False,False,"41.94738, -87.71906",41.94738,-87.71906,60618,04,60618,90
30240,S,Addison (Forest Pk-bound),Addison,Addison (Blue Line),41240,True,False,True,False,False,False,False,False,False,False,"41.94738, -87.71906",41.94738,-87.71906,60618,05,60618,23101
30240,S,Addison (Forest Pk-bound),Addison,Addison (Blue Line),41240,True,False,True,False,False,False,False,False,False,False,"41.94738, -87.71906",41.94738,-87.71906,60618,14,60618,1299
30240,S,Addison (Forest Pk-bound),Addison,Addison (Blue Line),41240,True,False,True,False,False,False,False,False,False,False,"41.94738, -87.71906",41.94738,-87.71906,60618,16,60618,32502
30240,S,Addison (Forest Pk-bound),Addison,Addison (Blue Line),41240,True,False,True,False,False,False,False,False,False,False,"41.94738, -87.71906",41.94738,-87.71906,60618,21,60618,34445
30240,S,Addison (Forest Pk-bound),Addison,Addison (Blue Line),41240,True,False,True,False,False,False,False,False,False,False,"41.94738, -87.71906",41.94738,-87.71906,60618,22,60618,647
30239,N,Addison (O'Hare-bound),Addison,Addison (Blue Line),41240,True,False,True,False,False,False,False,False,False,False,"41.94738, -87.71906",41.94738,-87.71906,60618,04,60618,90
30239,N,Addison (O'Hare-bound),Addison,Addison (Blue Line),41240,True,False,True,False,False,False,False,False,False,False,"41.94738, -87.71906",41.94738,-87.71906,60618,05,60618,23101
30239,N,Addison (O'Hare-bound),Addison,Addison (Blue Line),41240,True,False,True,False,False,False,False,False,False,False,"41.94738, -87.71906",41.94738,-87.71906,60618,14,60618,1299
30239,N,Addison (O'Hare-bound),Addison,Addison (Blue Line),41240,True,False,True,False,False,False,False,False,False,False,"41.94738, -87.71906",41.94738,-87.71906,60618,16,60618,32502
30239,N,Addison (O'Hare-bound),Addison,Addison (Blue Line),41240,True,False,True,False,False,False,False,False,False,False,"41.94738, -87.71906",41.94738,-87.71906,60618,21,60618,34445
30239,N,Addison (O'Hare-bound),Addison,Addison (Blue Line),41240,True,False,True,False,False,False,False,False,False,False,"41.94738, -87.71906",41.94738,-87.71906,60618,22,60618,647
30256,S,Belmont (95th-bound),Belmont,"Belmont (Red, Brown & Purple Lines)",41320,True,True,False,False,False,False,False,False,False,False,"41.939751, -87.65338",41.939751,-87.65338,60657,05,60657,4521
30256,S,Belmont (95th-bound),Belmont,"Belmont (Red, Brown & Purple Lines)",41320,True,True,False,False,False,False,False,False,False,False,"41.939751, -87.65338",41.939751,-87.65338,60657,06,60657,61475
30256,S,Belmont (95th-bound),Belmont,"Belmont (Red, Brown & Purple Lines)",41320,True,True,False,False,False,False,False,False,False,False,"41.939751, -87.65338",41.939751,-87.65338,60657,07,60657,0
30255,N,Belmont (Howard-bound),Belmont,"Belmont (Red, Brown & Purple Lines)",41320,True,True,False,False,False,False,False,False,False,False,"41.939751, -87.65338",41.939751,-87.65338,60657,05,60657,4521
30255,N,Belmont (Howard-bound),Belmont,"Belmont (Red, Brown & Purple Lines)",41320,True,True,False,False,False,False,False,False,False,False,"41.939751, -87.65338",41.939751,-87.65338,60657,06,60657,61475
30255,N,Belmont (Howard-bound),Belmont,"Belmont (Red, Brown & Purple Lines)",41320,True,True,False,False,False,False,False,False,False,False,"41.939751, -87.65338",41.939751,-87.65338,60657,07,60657,0
30257,N,Belmont (Kimball-Linden-bound),Belmont,"Belmont (Red, Brown & Purple Lines)",41320,True,False,False,False,True,False,True,False,False,False,"41.939751, -87.65338",41.939751,-87.65338,60657,05,60657,4521
30257,N,Belmont (Kimball-Linden-bound),Belmont,"Belmont (Red, Brown & Purple Lines)",41320,True,False,False,False,True,False,True,False,False,False,"41.939751, -87.65338",41.939751,-87.65338,60657,06,60657,61475
30257,N,Belmont (Kimball-Linden-bound),Belmont,"Belmont (Red, Brown & Purple Lines)",41320,True,False,False,False,True,False,True,False,False,False,"41.939751, -87.65338",41.939751,-87.65338,60657,07,60657,0
30258,S,Belmont (Loop-bound),Belmont,"Belmont (Red, Brown & Purple Lines)",41320,True,False,False,False,True,False,True,False,False,False,"41.939751, -87.65338",41.939751,-87.65338,60657,05,60657,4521
30258,S,Belmont (Loop-bound),Belmont,"Belmont (Red, Brown & Purple Lines)",41320,True,False,False,False,True,False,True,False,False,False,"41.939751, -87.65338",41.939751,-87.65338,60657,06,60657,61475
30258,S,Belmont (Loop-bound),Belmont,"Belmont (Red, Brown & Purple Lines)",41320,True,False,False,False,True,False,True,False,False,False,"41.939751, -87.65338",41.939751,-87.65338,60657,07,60657,0
30253,N,Paulina (Kimball-bound),Paulina,Paulina (Brown Line),41310,True,False,False,False,True,False,False,False,False,False,"41.943623, -87.670907",41.943623,-87.670907,60657,05,60657,4521
30253,N,Paulina (Kimball-bound),Paulina,Paulina (Brown Line),41310,True,False,False,False,True,False,False,False,False,False,"41.943623, -87.670907",41.943623,-87.670907,60657,06,60657,61475
30253,N,Paulina (Kimball-bound),Paulina,Paulina (Brown Line),41310,True,False,False,False,True,False,False,False,False,False,"41.943623, -87.670907",41.943623,-87.670907,60657,07,60657,0
30254,S,Paulina (Loop-bound),Paulina,Paulina (Brown Line),41310,True,False,False,False,True,False,False,False,False,False,"41.943623, -87.670907",41.943623,-87.670907,60657,05,60657,4521
30254,S,Paulina (Loop-bound),Paulina,Paulina (Brown Line),41310,True,False,False,False,True,False,False,False,False,False,"41.943623, -87.670907",41.943623,-87.670907,60657,06,60657,61475
30254,S,Paulina (Loop-bound),Paulina,Paulina (Brown Line),41310,True,False,False,False,True,False,False,False,False,False,"41.943623, -87.670907",41.943623,-87.670907,60657,07,60657,0
30070,N,Southport (Kimball-bound),Southport,Southport (Brown Line),40360,True,False,False,False,True,False,False,False,False,False,"41.943744, -87.663619",41.943744,-87.663619,60657,05,60657,4521
30070,N,Southport (Kimball-bound),Southport,Southport (Brown Line),40360,True,False,False,False,True,False,False,False,False,False,"41.943744, -87.663619",41.943744,-87.663619,60657,06,60657,61475
30070,N,Southport (Kimball-bound),Southport,Southport (Brown Line),40360,True,False,False,False,True,False,False,False,False,False,"41.943744, -87.663619",41.943744,-87.663619,60657,07,60657,0
30071,S,Southport (Loop-bound),Southport,Southport (Brown Line),40360,True,False,False,False,True,False,False,False,False,False,"41.943744, -87.663619",41.943744,-87.663619,60657,05,60657,4521
30071,S,Southport (Loop-bound),Southport,Southport (Brown Line),40360,True,False,False,False,True,False,False,False,False,False,"41.943744, -87.663619",41.943744,-87.663619,60657,06,60657,61475
30071,S,Southport (Loop-bound),Southport,Southport (Brown Line),40360,True,False,False,False,True,False,False,False,False,False,"41.943744, -87.663619",41.943744,-87.663619,60657,07,60657,0
30231,N,Wellington (Kimball-Linden-bound),Wellington,Wellington (Brown & Purple Lines),41210,True,False,False,False,True,False,True,False,False,False,"41.936033, -87.653266",41.936033,-87.653266,60657,05,60657,4521
30231,N,Wellington (Kimball-Linden-bound),Wellington,Wellington (Brown & Purple Lines),41210,True,False,False,False,True,False,True,False,False,False,"41.936033, -87.653266",41.936033,-87.653266,60657,06,60657,61475
30231,N,Wellington (Kimball-Linden-bound),Wellington,Wellington (Brown & Purple Lines),41210,True,False,False,False,True,False,True,False,False,False,"41.936033, -87.653266",41.936033,-87.653266,60657,07,60657,0
30232,S,Wellington (Loop-bound),Wellington,Wellington (Brown & Purple Lines),41210,True,False,False,False,True,False,True,False,False,False,"41.936033, -87.653266",41.936033,-87.653266,60657,05,60657,4521
30232,S,Wellington (Loop-bound),Wellington,Wellington (Brown & Purple Lines),41210,True,False,False,False,True,False,True,False,False,False,"41.936033, -87.653266",41.936033,-87.653266,60657,06,60657,61475
30232,S,Wellington (Loop-bound),Wellington,Wellington (Brown & Purple Lines),41210,True,False,False,False,True,False,True,False,False,False,"41.936033, -87.653266",41.936033,-87.653266,60657,07,60657,0
30268,S,Bryn Mawr (95th-bound),Bryn Mawr,Bryn Mawr (Red Line),41380,False,True,False,False,False,False,False,False,False,False,"41.983504, -87.65884",41.983504,-87.65884,60660,01,60660,191
30268,S,Bryn Mawr (95th-bound),Bryn Mawr,Bryn Mawr (Red Line),41380,False,True,False,False,False,False,False,False,False,False,"41.983504, -87.65884",41.983504,-87.65884,60660,02,60660,2718
30268,S,Bryn Mawr (95th-bound),Bryn Mawr,Bryn Mawr (Red Line),41380,False,True,False,False,False,False,False,False,False,False,"41.983504, -87.65884",41.983504,-87.65884,60660,04,60660,0
30268,S,Bryn Mawr (95th-bound),Bryn Mawr,Bryn Mawr (Red Line),41380,False,True,False,False,False,False,False,False,False,False,"41.983504, -87.65884",41.983504,-87.65884,60660,77,60660,39843
30267,N,Bryn Mawr (Howard-bound),Bryn Mawr,Bryn Mawr (Red Line),41380,False,True,False,False,False,False,False,False,False,False,"41.983504, -87.65884",41.983504,-87.65884,60660,01,60660,191
30267,N,Bryn Mawr (Howard-bound),Bryn Mawr,Bryn Mawr (Red Line),41380,False,True,False,False,False,False,False,False,False,False,"41.983504, -87.65884",41.983504,-87.65884,60660,02,60660,2718
30267,N,Bryn Mawr (Howard-bound),Bryn Mawr,Bryn Mawr (Red Line),41380,False,True,False,False,False,False,False,False,False,False,"41.983504, -87.65884",41.983504,-87.65884,60660,04,60660,0
30267,N,Bryn Mawr (Howard-bound),Bryn Mawr,Bryn Mawr (Red Line),41380,False,True,False,False,False,False,False,False,False,False,"41.983504, -87.65884",41.983504,-87.65884,60660,77,60660,39843
30148,S,Granville (95th-bound),Granville,Granville (Red Line),40760,True,True,False,False,False,False,False,False,False,False,"41.993664, -87.659202",41.993664,-87.659202,60660,01,60660,191
30148,S,Granville (95th-bound),Granville,Granville (Red Line),40760,True,True,False,False,False,False,False,False,False,False,"41.993664, -87.659202",41.993664,-87.659202,60660,02,60660,2718
30148,S,Granville (95th-bound),Granville,Granville (Red Line),40760,True,True,False,False,False,False,False,False,False,False,"41.993664, -87.659202",41.993664,-87.659202,60660,04,60660,0
30148,S,Granville (95th-bound),Granville,Granville (Red Line),40760,True,True,False,False,False,False,False,False,False,False,"41.993664, -87.659202",41.993664,-87.659202,60660,77,60660,39843
30147,N,Granville (Howard-bound),Granville,Granville (Red Line),40760,True,True,False,False,False,False,False,False,False,False,"41.993664, -87.659202",41.993664,-87.659202,60660,01,60660,191
30147,N,Granville (Howard-bound),Granville,Granville (Red Line),40760,True,True,False,False,False,False,False,False,False,False,"41.993664, -87.659202",41.993664,-87.659202,60660,02,60660,2718
30147,N,Granville (Howard-bound),Granville,Granville (Red Line),40760,True,True,False,False,False,False,False,False,False,False,"41.993664, -87.659202",41.993664,-87.659202,60660,04,60660,0
30147,N,Granville (Howard-bound),Granville,Granville (Red Line),40760,True,True,False,False,False,False,False,False,False,False,"41.993664, -87.659202",41.993664,-87.659202,60660,77,60660,39843
30170,S,Thorndale (95th-bound),Thorndale,Thorndale (Red Line),40880,False,True,False,False,False,False,False,False,False,False,"41.990259, -87.659076",41.990259,-87.659076,60660,01,60660,191
30170,S,Thorndale (95th-bound),Thorndale,Thorndale (Red Line),40880,False,True,False,False,False,False,False,False,False,False,"41.990259, -87.659076",41.990259,-87.659076,60660,02,60660,2718
30170,S,Thorndale (95th-bound),Thorndale,Thorndale (Red Line),40880,False,True,False,False,False,False,False,False,False,False,"41.990259, -87.659076",41.990259,-87.659076,60660,04,60660,0
30170,S,Thorndale (95th-bound),Thorndale,Thorndale (Red Line),40880,False,True,False,False,False,False,False,False,False,False,"41.990259, -87.659076",41.990259,-87.659076,60660,77,60660,39843
30169,N,Thorndale (Howard-bound),Thorndale,Thorndale (Red Line),40880,False,True,False,False,False,False,False,False,False,False,"41.990259, -87.659076",41.990259,-87.659076,60660,01,60660,191
30169,N,Thorndale (Howard-bound),Thorndale,Thorndale (Red Line),40880,False,True,False,False,False,False,False,False,False,False,"41.990259, -87.659076",41.990259,-87.659076,60660,02,60660,2718
30169,N,Thorndale (Howard-bound),Thorndale,Thorndale (Red Line),40880,False,True,False,False,False,False,False,False,False,False,"41.990259, -87.659076",41.990259,-87.659076,60660,04,60660,0
30169,N,Thorndale (Howard-bound),Thorndale,Thorndale (Red Line),40880,False,True,False,False,False,False,False,False,False,False,"41.990259, -87.659076",41.990259,-87.659076,60660,77,60660,39843
30265,E,California (63rd-bound),California,California (Green Line),41360,True,False,False,True,False,False,False,False,False,False,"41.88422, -87.696234",41.88422,-87.696234,60612,23,60612,1157
30265,E,California (63rd-bound),California,California (Green Line),41360,True,False,False,True,False,False,False,False,False,False,"41.88422, -87.696234",41.88422,-87.696234,60612,24,60612,4951
30265,E,California (63rd-bound),California,California (Green Line),41360,True,False,False,True,False,False,False,False,False,False,"41.88422, -87.696234",41.88422,-87.696234,60612,27,60612,10111
30265,E,California (63rd-bound),California,California (Green Line),41360,True,False,False,True,False,False,False,False,False,False,"41.88422, -87.696234",41.88422,-87.696234,60612,28,60612,15619
30265,E,California (63rd-bound),California,California (Green Line),41360,True,False,False,True,False,False,False,False,False,False,"41.88422, -87.696234",41.88422,-87.696234,60612,29,60612,1634
30266,W,California (Harlem-bound),California,California (Green Line),41360,True,False,False,True,False,False,False,False,False,False,"41.88422, -87.696234",41.88422,-87.696234,60612,23,60612,1157
30266,W,California (Harlem-bound),California,California (Green Line),41360,True,False,False,True,False,False,False,False,False,False,"41.88422, -87.696234",41.88422,-87.696234,60612,24,60612,4951
30266,W,California (Harlem-bound),California,California (Green Line),41360,True,False,False,True,False,False,False,False,False,False,"41.88422, -87.696234",41.88422,-87.696234,60612,27,60612,10111
30266,W,California (Harlem-bound),California,California (Green Line),41360,True,False,False,True,False,False,False,False,False,False,"41.88422, -87.696234",41.88422,-87.696234,60612,28,60612,15619
30266,W,California (Harlem-bound),California,California (Green Line),41360,True,False,False,True,False,False,False,False,False,False,"41.88422, -87.696234",41.88422,-87.696234,60612,29,60612,1634
30158,W,Illinois Medical District (Forest Pk-bound),Illinois Medical District,Illinois Medical District (Blue Line),40810,True,False,True,False,False,False,False,False,False,False,"41.875706, -87.673932",41.875706,-87.673932,60612,23,60612,1157
30158,W,Illinois Medical District (Forest Pk-bound),Illinois Medical District,Illinois Medical District (Blue Line),40810,True,False,True,False,False,False,False,False,False,False,"41.875706, -87.673932",41.875706,-87.673932,60612,24,60612,4951
30158,W,Illinois Medical District (Forest Pk-bound),Illinois Medical District,Illinois Medical District (Blue Line),40810,True,False,True,False,False,False,False,False,False,False,"41.875706, -87.673932",41.875706,-87.673932,60612,27,60612,10111
30158,W,Illinois Medical District (Forest Pk-bound),Illinois Medical District,Illinois Medical District (Blue Line),40810,True,False,True,False,False,False,False,False,False,False,"41.875706, -87.673932",41.875706,-87.673932,60612,28,60612,15619
30158,W,Illinois Medical District (Forest Pk-bound),Illinois Medical District,Illinois Medical District (Blue Line),40810,True,False,True,False,False,False,False,False,False,False,"41.875706, -87.673932",41.875706,-87.673932,60612,29,60612,1634
30157,E,Illinois Medical District (O'Hare-bound),Illinois Medical District,Illinois Medical District (Blue Line),40810,True,False,True,False,False,False,False,False,False,False,"41.875706, -87.673932",41.875706,-87.673932,60612,23,60612,1157
30157,E,Illinois Medical District (O'Hare-bound),Illinois Medical District,Illinois Medical District (Blue Line),40810,True,False,True,False,False,False,False,False,False,False,"41.875706, -87.673932",41.875706,-87.673932,60612,24,60612,4951
30157,E,Illinois Medical District (O'Hare-bound),Illinois Medical District,Illinois Medical District (Blue Line),40810,True,False,True,False,False,False,False,False,False,False,"41.875706, -87.673932",41.875706,-87.673932,60612,27,60612,10111
30157,E,Illinois Medical District (O'Hare-bound),Illinois Medical District,Illinois Medical District (Blue Line),40810,True,False,True,False,False,False,False,False,False,False,"41.875706, -87.673932",41.875706,-87.673932,60612,28,60612,15619
30157,E,Illinois Medical District (O'Hare-bound),Illinois Medical District,Illinois Medical District (Blue Line),40810,True,False,True,False,False,False,False,False,False,False,"41.875706, -87.673932",41.875706,-87.673932,60612,29,60612,1634
30207,E,Kedzie (63rd-bound),Kedzie,Kedzie (Green Line),41070,True,False,False,True,False,False,False,False,False,False,"41.884321, -87.706155",41.884321,-87.706155,60612,23,60612,1157
30207,E,Kedzie (63rd-bound),Kedzie,Kedzie (Green Line),41070,True,False,False,True,False,False,False,False,False,False,"41.884321, -87.706155",41.884321,-87.706155,60612,24,60612,4951
30207,E,Kedzie (63rd-bound),Kedzie,Kedzie (Green Line),41070,True,False,False,True,False,False,False,False,False,False,"41.884321, -87.706155",41.884321,-87.706155,60612,27,60612,10111
30207,E,Kedzie (63rd-bound),Kedzie,Kedzie (Green Line),41070,True,False,False,True,False,False,False,False,False,False,"41.884321, -87.706155",41.884321,-87.706155,60612,28,60612,15619
30207,E,Kedzie (63rd-bound),Kedzie,Kedzie (Green Line),41070,True,False,False,True,False,False,False,False,False,False,"41.884321, -87.706155",41.884321,-87.706155,60612,29,60612,1634
30208,W,Kedzie (Harlem-bound),Kedzie,Kedzie (Green Line),41070,True,False,False,True,False,False,False,False,False,False,"41.884321, -87.706155",41.884321,-87.706155,60612,23,60612,1157
30208,W,Kedzie (Harlem-bound),Kedzie,Kedzie (Green Line),41070,True,False,False,True,False,False,False,False,False,False,"41.884321, -87.706155",41.884321,-87.706155,60612,24,60612,4951
30208,W,Kedzie (Harlem-bound),Kedzie,Kedzie (Green Line),41070,True,False,False,True,False,False,False,False,False,False,"41.884321, -87.706155",41.884321,-87.706155,60612,27,60612,10111
30208,W,Kedzie (Harlem-bound),Kedzie,Kedzie (Green Line),41070,True,False,False,True,False,False,False,False,False,False,"41.884321, -87.706155",41.884321,-87.706155,60612,28,60612,15619
30208,W,Kedzie (Harlem-bound),Kedzie,Kedzie (Green Line),41070,True,False,False,True,False,False,False,False,False,False,"41.884321, -87.706155",41.884321,-87.706155,60612,29,60612,1634
30200,W,Polk (54th/Cermak-bound),Polk,Polk (Pink Line),41030,True,False,False,False,False,False,False,False,True,False,"41.871551, -87.66953",41.871551,-87.66953,60612,23,60612,1157
30200,W,Polk (54th/Cermak-bound),Polk,Polk (Pink Line),41030,True,False,False,False,False,False,False,False,True,False,"41.871551, -87.66953",41.871551,-87.66953,60612,24,60612,4951
30200,W,Polk (54th/Cermak-bound),Polk,Polk (Pink Line),41030,True,False,False,False,False,False,False,False,True,False,"41.871551, -87.66953",41.871551,-87.66953,60612,27,60612,10111
30200,W,Polk (54th/Cermak-bound),Polk,Polk (Pink Line),41030,True,False,False,False,False,False,False,False,True,False,"41.871551, -87.66953",41.871551,-87.66953,60612,28,60612,15619
30200,W,Polk (54th/Cermak-bound),Polk,Polk (Pink Line),41030,True,False,False,False,False,False,False,False,True,False,"41.871551, -87.66953",41.871551,-87.66953,60612,29,60612,1634
30199,E,Polk (Loop-bound),Polk,Polk (Pink Line),41030,True,False,False,False,False,False,False,False,True,False,"41.871551, -87.66953",41.871551,-87.66953,60612,23,60612,1157
30199,E,Polk (Loop-bound),Polk,Polk (Pink Line),41030,True,False,False,False,False,False,False,False,True,False,"41.871551, -87.66953",41.871551,-87.66953,60612,24,60612,4951
30199,E,Polk (Loop-bound),Polk,Polk (Pink Line),41030,True,False,False,False,False,False,False,False,True,False,"41.871551, -87.66953",41.871551,-87.66953,60612,27,60612,10111
30199,E,Polk (Loop-bound),Polk,Polk (Pink Line),41030,True,False,False,False,False,False,False,False,True,False,"41.871551, -87.66953",41.871551,-87.66953,60612,28,60612,15619
30199,E,Polk (Loop-bound),Polk,Polk (Pink Line),41030,True,False,False,False,False,False,False,False,True,False,"41.871551, -87.66953",41.871551,-87.66953,60612,29,60612,1634
30042,E,Western (Forest Pk Branch) (O'Hare-bound),Western,Western (Blue Line - Forest Park Branch),40220,False,False,True,False,False,False,False,False,False,False,"41.875478, -87.688436",41.875478,-87.688436,60612,23,60612,1157
30042,E,Western (Forest Pk Branch) (O'Hare-bound),Western,Western (Blue Line - Forest Park Branch),40220,False,False,True,False,False,False,False,False,False,False,"41.875478, -87.688436",41.875478,-87.688436,60612,24,60612,4951
30042,E,Western (Forest Pk Branch) (O'Hare-bound),Western,Western (Blue Line - Forest Park Branch),40220,False,False,True,False,False,False,False,False,False,False,"41.875478, -87.688436",41.875478,-87.688436,60612,27,60612,10111
30042,E,Western (Forest Pk Branch) (O'Hare-bound),Western,Western (Blue Line - Forest Park Branch),40220,False,False,True,False,False,False,False,False,False,False,"41.875478, -87.688436",41.875478,-87.688436,60612,28,60612,15619
30042,E,Western (Forest Pk Branch) (O'Hare-bound),Western,Western (Blue Line - Forest Park Branch),40220,False,False,True,False,False,False,False,False,False,False,"41.875478, -87.688436",41.875478,-87.688436,60612,29,60612,1634
30043,W,Western (Forest Pk Branch) (Forest Pk-bound),Western,Western (Blue Line - Forest Park Branch),40220,False,False,True,False,False,False,False,False,False,False,"41.875478, -87.688436",41.875478,-87.688436,60612,23,60612,1157
30043,W,Western (Forest Pk Branch) (Forest Pk-bound),Western,Western (Blue Line - Forest Park Branch),40220,False,False,True,False,False,False,False,False,False,False,"41.875478, -87.688436",41.875478,-87.688436,60612,24,60612,4951
30043,W,Western (Forest Pk Branch) (Forest Pk-bound),Western,Western (Blue Line - Forest Park Branch),40220,False,False,True,False,False,False,False,False,False,False,"41.875478, -87.688436",41.875478,-87.688436,60612,27,60612,10111
30043,W,Western (Forest Pk Branch) (Forest Pk-bound),Western,Western (Blue Line - Forest Park Branch),40220,False,False,True,False,False,False,False,False,False,False,"41.875478, -87.688436",41.875478,-87.688436,60612,28,60612,15619
30043,W,Western (Forest Pk Branch) (Forest Pk-bound),Western,Western (Blue Line - Forest Park Branch),40220,False,False,True,False,False,False,False,False,False,False,"41.875478, -87.688436",41.875478,-87.688436,60612,29,60612,1634
30033,W,Ashland (Harlem-54th/Cermak-bound),Ashland,Ashland (Green & Pink Lines),40170,True,False,False,True,False,False,False,False,True,False,"41.885269, -87.666969",41.885269,-87.666969,60612,23,60612,1157
30033,W,Ashland (Harlem-54th/Cermak-bound),Ashland,Ashland (Green & Pink Lines),40170,True,False,False,True,False,False,False,False,True,False,"41.885269, -87.666969",41.885269,-87.666969,60612,24,60612,4951
30033,W,Ashland (Harlem-54th/Cermak-bound),Ashland,Ashland (Green & Pink Lines),40170,True,False,False,True,False,False,False,False,True,False,"41.885269, -87.666969",41.885269,-87.666969,60612,27,60612,10111
30033,W,Ashland (Harlem-54th/Cermak-bound),Ashland,Ashland (Green & Pink Lines),40170,True,False,False,True,False,False,False,False,True,False,"41.885269, -87.666969",41.885269,-87.666969,60612,28,60612,15619
30033,W,Ashland (Harlem-54th/Cermak-bound),Ashland,Ashland (Green & Pink Lines),40170,True,False,False,True,False,False,False,False,True,False,"41.885269, -87.666969",41.885269,-87.666969,60612,29,60612,1634
30032,E,Ashland (Loop-63rd-bound),Ashland,Ashland (Green & Pink Lines),40170,True,False,False,True,False,False,False,False,True,False,"41.885269, -87.666969",41.885269,-87.666969,60612,23,60612,1157
30032,E,Ashland (Loop-63rd-bound),Ashland,Ashland (Green & Pink Lines),40170,True,False,False,True,False,False,False,False,True,False,"41.885269, -87.666969",41.885269,-87.666969,60612,24,60612,4951
30032,E,Ashland (Loop-63rd-bound),Ashland,Ashland (Green & Pink Lines),40170,True,False,False,True,False,False,False,False,True,False,"41.885269, -87.666969",41.885269,-87.666969,60612,27,60612,10111
30032,E,Ashland (Loop-63rd-bound),Ashland,Ashland (Green & Pink Lines),40170,True,False,False,True,False,False,False,False,True,False,"41.885269, -87.666969",41.885269,-87.666969,60612,28,60612,15619
30032,E,Ashland (Loop-63rd-bound),Ashland,Ashland (Green & Pink Lines),40170,True,False,False,True,False,False,False,False,True,False,"41.885269, -87.666969",41.885269,-87.666969,60612,29,60612,1634
30074,E,Clark/Lake (Inner Loop),Clark/Lake,"Clark/Lake (Blue, Brown, Green, Orange, Purple & Pink Lines)",40380,True,False,False,True,False,False,True,False,True,True,"41.885737, -87.630886",41.885737,-87.630886,60601,32,60601,11110
30075,W,Clark/Lake (Outer Loop),Clark/Lake,"Clark/Lake (Blue, Brown, Green, Orange, Purple & Pink Lines)",40380,True,False,False,True,True,False,False,False,False,False,"41.885737, -87.630886",41.885737,-87.630886,60601,32,60601,11110
30374,S,Clark/Lake (Forest Pk-bound),Clark/Lake,"Clark/Lake (Blue, Brown, Green, Orange, Purple & Pink Lines)",40380,True,False,True,False,False,False,False,False,False,False,"41.885737, -87.630886",41.885737,-87.630886,60601,32,60601,11110
30375,N,Clark/Lake (O'Hare-bound),Clark/Lake,"Clark/Lake (Blue, Brown, Green, Orange, Purple & Pink Lines)",40380,True,False,True,False,False,False,False,False,False,False,"41.885737, -87.630886",41.885737,-87.630886,60601,32,60601,11110
30290,S,Lake (95th-bound),Lake,Lake (Red Line),41660,True,True,False,False,False,False,False,False,False,False,"41.884809, -87.627813",41.884809,-87.627813,60601,32,60601,11110
30050,E,State/Lake (Inner Loop),State/Lake,"State/Lake (Brown, Green, Orange, Pink & Purple Lines)",40260,False,False,False,True,False,False,True,False,True,True,"41.88574, -87.627835",41.88574,-87.627835,60601,32,60601,11110
30051,W,State/Lake (Outer Loop),State/Lake,"State/Lake (Brown, Green, Orange, Pink & Purple Lines)",40260,False,False,False,True,True,False,False,False,False,False,"41.88574, -87.627835",41.88574,-87.627835,60601,32,60601,11110
30289,N,Lake (Howard-bound),Lake,Lake (Red Line),41660,True,True,False,False,False,False,False,False,False,False,"41.884809, -87.627813",41.884809,-87.627813,60601,32,60601,11110
30085,W,Clinton (Forest Pk-bound),Clinton,Clinton (Blue Line),40430,False,False,True,False,False,False,False,False,False,False,"41.875539, -87.640984",41.875539,-87.640984,60607,28,60607,21873
30085,W,Clinton (Forest Pk-bound),Clinton,Clinton (Blue Line),40430,False,False,True,False,False,False,False,False,False,False,"41.875539, -87.640984",41.875539,-87.640984,60607,32,60607,2024
30084,E,Clinton (O'Hare-bound),Clinton,Clinton (Blue Line),40430,False,False,True,False,False,False,False,False,False,False,"41.875539, -87.640984",41.875539,-87.640984,60607,28,60607,21873
30084,E,Clinton (O'Hare-bound),Clinton,Clinton (Blue Line),40430,False,False,True,False,False,False,False,False,False,False,"41.875539, -87.640984",41.875539,-87.640984,60607,32,60607,2024
30296,W,Morgan (Harlem-54th/Cermak-bound),Morgan,Morgan (Green & Pink Lines),41510,True,False,False,True,False,False,False,False,True,False,"41.885586, -87.652193",41.885586,-87.652193,60607,28,60607,21873
30296,W,Morgan (Harlem-54th/Cermak-bound),Morgan,Morgan (Green & Pink Lines),41510,True,False,False,True,False,False,False,False,True,False,"41.885586, -87.652193",41.885586,-87.652193,60607,32,60607,2024
30295,E,Morgan (Loop-63rd-bound),Morgan,Morgan (Green & Pink Lines),41510,True,False,False,True,False,False,False,False,True,False,"41.885586, -87.652193",41.885586,-87.652193,60607,28,60607,21873
30295,E,Morgan (Loop-63rd-bound),Morgan,Morgan (Green & Pink Lines),41510,True,False,False,True,False,False,False,False,True,False,"41.885586, -87.652193",41.885586,-87.652193,60607,32,60607,2024
30093,W,Racine (Forest Pk-bound),Racine,Racine (Blue Line),40470,False,False,True,False,False,False,False,False,False,False,"41.87592, -87.659458",41.87592,-87.659458,60607,28,60607,21873
30093,W,Racine (Forest Pk-bound),Racine,Racine (Blue Line),40470,False,False,True,False,False,False,False,False,False,False,"41.87592, -87.659458",41.87592,-87.659458,60607,32,60607,2024
30092,E,Racine (O'Hare-bound),Racine,Racine (Blue Line),40470,False,False,True,False,False,False,False,False,False,False,"41.87592, -87.659458",41.87592,-87.659458,60607,28,60607,21873
30092,E,Racine (O'Hare-bound),Racine,Racine (Blue Line),40470,False,False,True,False,False,False,False,False,False,False,"41.87592, -87.659458",41.87592,-87.659458,60607,32,60607,2024
30069,W,UIC-Halsted (Forest Pk-bound),UIC-Halsted,UIC-Halsted (Blue Line),40350,True,False,True,False,False,False,False,False,False,False,"41.875474, -87.649707",41.875474,-87.649707,60607,28,60607,21873
30069,W,UIC-Halsted (Forest Pk-bound),UIC-Halsted,UIC-Halsted (Blue Line),40350,True,False,True,False,False,False,False,False,False,False,"41.875474, -87.649707",41.875474,-87.649707,60607,32,60607,2024
30068,E,UIC-Halsted (O'Hare-bound),UIC-Halsted,UIC-Halsted (Blue Line),40350,True,False,True,False,False,False,False,False,False,False,"41.875474, -87.649707",41.875474,-87.649707,60607,28,60607,21873
30068,E,UIC-Halsted (O'Hare-bound),UIC-Halsted,UIC-Halsted (Blue Line),40350,True,False,True,False,False,False,False,False,False,False,"41.875474, -87.649707",41.875474,-87.649707,60607,32,60607,2024
30222,W,Clinton (Harlem-54th/Cermak-bound),Clinton,Clinton (Green & Pink Lines),41160,True,False,False,True,False,False,False,False,True,False,"41.885678, -87.641782",41.885678,-87.641782,60661,24,60661,0
30222,W,Clinton (Harlem-54th/Cermak-bound),Clinton,Clinton (Green & Pink Lines),41160,True,False,False,True,False,False,False,False,True,False,"41.885678, -87.641782",41.885678,-87.641782,60661,28,60661,7792
30221,E,Clinton (Loop-63rd-bound),Clinton,Clinton (Green & Pink Lines),41160,True,False,False,True,False,False,False,False,True,False,"41.885678, -87.641782",41.885678,-87.641782,60661,24,60661,0
30221,E,Clinton (Loop-63rd-bound),Clinton,Clinton (Green & Pink Lines),41160,True,False,False,True,False,False,False,False,True,False,"41.885678, -87.641782",41.885678,-87.641782,60661,28,60661,7792
30291,E,Conservatory (63rd-bound),Conservatory,Conservatory (Green Line),41670,True,False,False,True,False,False,False,False,False,False,"41.884904, -87.716523",41.884904,-87.716523,60624,23,60624,7127
30291,E,Conservatory (63rd-bound),Conservatory,Conservatory (Green Line),41670,True,False,False,True,False,False,False,False,False,False,"41.884904, -87.716523",41.884904,-87.716523,60624,25,60624,0
30291,E,Conservatory (63rd-bound),Conservatory,Conservatory (Green Line),41670,True,False,False,True,False,False,False,False,False,False,"41.884904, -87.716523",41.884904,-87.716523,60624,26,60624,18001
30291,E,Conservatory (63rd-bound),Conservatory,Conservatory (Green Line),41670,True,False,False,True,False,False,False,False,False,False,"41.884904, -87.716523",41.884904,-87.716523,60624,27,60624,10456
30291,E,Conservatory (63rd-bound),Conservatory,Conservatory (Green Line),41670,True,False,False,True,False,False,False,False,False,False,"41.884904, -87.716523",41.884904,-87.716523,60624,29,60624,2521
30292,W,Conservatory (Harlem-bound),Conservatory,Conservatory (Green Line),41670,True,False,False,True,False,False,False,False,False,False,"41.884904, -87.716523",41.884904,-87.716523,60624,23,60624,7127
30292,W,Conservatory (Harlem-bound),Conservatory,Conservatory (Green Line),41670,True,False,False,True,False,False,False,False,False,False,"41.884904, -87.716523",41.884904,-87.716523,60624,25,60624,0
30292,W,Conservatory (Harlem-bound),Conservatory,Conservatory (Green Line),41670,True,False,False,True,False,False,False,False,False,False,"41.884904, -87.716523",41.884904,-87.716523,60624,26,60624,18001
30292,W,Conservatory (Harlem-bound),Conservatory,Conservatory (Green Line),41670,True,False,False,True,False,False,False,False,False,False,"41.884904, -87.716523",41.884904,-87.716523,60624,27,60624,10456
30292,W,Conservatory (Harlem-bound),Conservatory,Conservatory (Green Line),41670,True,False,False,True,False,False,False,False,False,False,"41.884904, -87.716523",41.884904,-87.716523,60624,29,60624,2521
30049,W,Kedzie-Homan (Forest Pk-bound),Kedzie-Homan,Kedzie-Homan (Blue Line),40250,True,False,True,False,False,False,False,False,False,False,"41.874341, -87.70604",41.874341,-87.70604,60624,23,60624,7127
30049,W,Kedzie-Homan (Forest Pk-bound),Kedzie-Homan,Kedzie-Homan (Blue Line),40250,True,False,True,False,False,False,False,False,False,False,"41.874341, -87.70604",41.874341,-87.70604,60624,25,60624,0
30049,W,Kedzie-Homan (Forest Pk-bound),Kedzie-Homan,Kedzie-Homan (Blue Line),40250,True,False,True,False,False,False,False,False,False,False,"41.874341, -87.70604",41.874341,-87.70604,60624,26,60624,18001
30049,W,Kedzie-Homan (Forest Pk-bound),Kedzie-Homan,Kedzie-Homan (Blue Line),40250,True,False,True,False,False,False,False,False,False,False,"41.874341, -87.70604",41.874341,-87.70604,60624,27,60624,10456
30049,W,Kedzie-Homan (Forest Pk-bound),Kedzie-Homan,Kedzie-Homan (Blue Line),40250,True,False,True,False,False,False,False,False,False,False,"41.874341, -87.70604",41.874341,-87.70604,60624,29,60624,2521
30048,E,Kedzie-Homan (O'Hare-bound),Kedzie-Homan,Kedzie-Homan (Blue Line),40250,True,False,True,False,False,False,False,False,False,False,"41.874341, -87.70604",41.874341,-87.70604,60624,23,60624,7127
30048,E,Kedzie-Homan (O'Hare-bound),Kedzie-Homan,Kedzie-Homan (Blue Line),40250,True,False,True,False,False,False,False,False,False,False,"41.874341, -87.70604",41.874341,-87.70604,60624,25,60624,0
30048,E,Kedzie-Homan (O'Hare-bound),Kedzie-Homan,Kedzie-Homan (Blue Line),40250,True,False,True,False,False,False,False,False,False,False,"41.874341, -87.70604",41.874341,-87.70604,60624,26,60624,18001
30048,E,Kedzie-Homan (O'Hare-bound),Kedzie-Homan,Kedzie-Homan (Blue Line),40250,True,False,True,False,False,False,False,False,False,False,"41.874341, -87.70604",41.874341,-87.70604,60624,27,60624,10456
30048,E,Kedzie-Homan (O'Hare-bound),Kedzie-Homan,Kedzie-Homan (Blue Line),40250,True,False,True,False,False,False,False,False,False,False,"41.874341, -87.70604",41.874341,-87.70604,60624,29,60624,2521
30180,W,Pulaski (Forest Pk-bound),Pulaski,Pulaski (Blue Line),40920,False,False,True,False,False,False,False,False,False,False,"41.873797, -87.725663",41.873797,-87.725663,60624,23,60624,7127
30180,W,Pulaski (Forest Pk-bound),Pulaski,Pulaski (Blue Line),40920,False,False,True,False,False,False,False,False,False,False,"41.873797, -87.725663",41.873797,-87.725663,60624,25,60624,0
30180,W,Pulaski (Forest Pk-bound),Pulaski,Pulaski (Blue Line),40920,False,False,True,False,False,False,False,False,False,False,"41.873797, -87.725663",41.873797,-87.725663,60624,26,60624,18001
30180,W,Pulaski (Forest Pk-bound),Pulaski,Pulaski (Blue Line),40920,False,False,True,False,False,False,False,False,False,False,"41.873797, -87.725663",41.873797,-87.725663,60624,27,60624,10456
30180,W,Pulaski (Forest Pk-bound),Pulaski,Pulaski (Blue Line),40920,False,False,True,False,False,False,False,False,False,False,"41.873797, -87.725663",41.873797,-87.725663,60624,29,60624,2521
30179,E,Pulaski (O'Hare-bound),Pulaski,Pulaski (Blue Line),40920,False,False,True,False,False,False,False,False,False,False,"41.873797, -87.725663",41.873797,-87.725663,60624,23,60624,7127
30179,E,Pulaski (O'Hare-bound),Pulaski,Pulaski (Blue Line),40920,False,False,True,False,False,False,False,False,False,False,"41.873797, -87.725663",41.873797,-87.725663,60624,25,60624,0
30179,E,Pulaski (O'Hare-bound),Pulaski,Pulaski (Blue Line),40920,False,False,True,False,False,False,False,False,False,False,"41.873797, -87.725663",41.873797,-87.725663,60624,26,60624,18001
30179,E,Pulaski (O'Hare-bound),Pulaski,Pulaski (Blue Line),40920,False,False,True,False,False,False,False,False,False,False,"41.873797, -87.725663",41.873797,-87.725663,60624,27,60624,10456
30179,E,Pulaski (O'Hare-bound),Pulaski,Pulaski (Blue Line),40920,False,False,True,False,False,False,False,False,False,False,"41.873797, -87.725663",41.873797,-87.725663,60624,29,60624,2521
30005,E,Pulaski (63rd-bound),Pulaski,Pulaski (Green Line),40030,True,False,False,True,False,False,False,False,False,False,"41.885412, -87.725404",41.885412,-87.725404,60624,23,60624,7127
30005,E,Pulaski (63rd-bound),Pulaski,Pulaski (Green Line),40030,True,False,False,True,False,False,False,False,False,False,"41.885412, -87.725404",41.885412,-87.725404,60624,25,60624,0
30005,E,Pulaski (63rd-bound),Pulaski,Pulaski (Green Line),40030,True,False,False,True,False,False,False,False,False,False,"41.885412, -87.725404",41.885412,-87.725404,60624,26,60624,18001
30005,E,Pulaski (63rd-bound),Pulaski,Pulaski (Green Line),40030,True,False,False,True,False,False,False,False,False,False,"41.885412, -87.725404",41.885412,-87.725404,60624,27,60624,10456
30005,E,Pulaski (63rd-bound),Pulaski,Pulaski (Green Line),40030,True,False,False,True,False,False,False,False,False,False,"41.885412, -87.725404",41.885412,-87.725404,60624,29,60624,2521
30006,W,Pulaski (Harlem-bound),Pulaski,Pulaski (Green Line),40030,True,False,False,True,False,False,False,False,False,False,"41.885412, -87.725404",41.885412,-87.725404,60624,23,60624,7127
30006,W,Pulaski (Harlem-bound),Pulaski,Pulaski (Green Line),40030,True,False,False,True,False,False,False,False,False,False,"41.885412, -87.725404",41.885412,-87.725404,60624,25,60624,0
30006,W,Pulaski (Harlem-bound),Pulaski,Pulaski (Green Line),40030,True,False,False,True,False,False,False,False,False,False,"41.885412, -87.725404",41.885412,-87.725404,60624,26,60624,18001
30006,W,Pulaski (Harlem-bound),Pulaski,Pulaski (Green Line),40030,True,False,False,True,False,False,False,False,False,False,"41.885412, -87.725404",41.885412,-87.725404,60624,27,60624,10456
30006,W,Pulaski (Harlem-bound),Pulaski,Pulaski (Green Line),40030,True,False,False,True,False,False,False,False,False,False,"41.885412, -87.725404",41.885412,-87.725404,60624,29,60624,2521
30139,E,Cottage Grove (Terminal arrival),Cottage Grove,Cottage Grove (Green Line),40720,True,False,False,True,False,False,False,False,False,False,"41.780309, -87.605857",41.780309,-87.605857,60637,40,60637,7922
30139,E,Cottage Grove (Terminal arrival),Cottage Grove,Cottage Grove (Green Line),40720,True,False,False,True,False,False,False,False,False,False,"41.780309, -87.605857",41.780309,-87.605857,60637,41,60637,8533
30139,E,Cottage Grove (Terminal arrival),Cottage Grove,Cottage Grove (Green Line),40720,True,False,False,True,False,False,False,False,False,False,"41.780309, -87.605857",41.780309,-87.605857,60637,42,60637,23739
30139,E,Cottage Grove (Terminal arrival),Cottage Grove,Cottage Grove (Green Line),40720,True,False,False,True,False,False,False,False,False,False,"41.780309, -87.605857",41.780309,-87.605857,60637,43,60637,2329
30139,E,Cottage Grove (Terminal arrival),Cottage Grove,Cottage Grove (Green Line),40720,True,False,False,True,False,False,False,False,False,False,"41.780309, -87.605857",41.780309,-87.605857,60637,69,60637,6980
30217,E,King Drive (Cottage Grove-bound),King Drive,King Drive (Green Line),41140,True,False,False,True,False,False,False,False,False,False,"41.78013, -87.615546",41.78013,-87.615546,60637,40,60637,7922
30217,E,King Drive (Cottage Grove-bound),King Drive,King Drive (Green Line),41140,True,False,False,True,False,False,False,False,False,False,"41.78013, -87.615546",41.78013,-87.615546,60637,41,60637,8533
30217,E,King Drive (Cottage Grove-bound),King Drive,King Drive (Green Line),41140,True,False,False,True,False,False,False,False,False,False,"41.78013, -87.615546",41.78013,-87.615546,60637,42,60637,23739
30217,E,King Drive (Cottage Grove-bound),King Drive,King Drive (Green Line),41140,True,False,False,True,False,False,False,False,False,False,"41.78013, -87.615546",41.78013,-87.615546,60637,43,60637,2329
30217,E,King Drive (Cottage Grove-bound),King Drive,King Drive (Green Line),41140,True,False,False,True,False,False,False,False,False,False,"41.78013, -87.615546",41.78013,-87.615546,60637,69,60637,6980
30218,W,King Drive (Harlem-bound),King Drive,King Drive (Green Line),41140,True,False,False,True,False,False,False,False,False,False,"41.78013, -87.615546",41.78013,-87.615546,60637,40,60637,7922
30218,W,King Drive (Harlem-bound),King Drive,King Drive (Green Line),41140,True,False,False,True,False,False,False,False,False,False,"41.78013, -87.615546",41.78013,-87.615546,60637,41,60637,8533
30218,W,King Drive (Harlem-bound),King Drive,King Drive (Green Line),41140,True,False,False,True,False,False,False,False,False,False,"41.78013, -87.615546",41.78013,-87.615546,60637,42,60637,23739
30218,W,King Drive (Harlem-bound),King Drive,King Drive (Green Line),41140,True,False,False,True,False,False,False,False,False,False,"41.78013, -87.615546",41.78013,-87.615546,60637,43,60637,2329
30218,W,King Drive (Harlem-bound),King Drive,King Drive (Green Line),41140,True,False,False,True,False,False,False,False,False,False,"41.78013, -87.615546",41.78013,-87.615546,60637,69,60637,6980
30140,W,Cottage Grove (Harlem-bound),Cottage Grove,Cottage Grove (Green Line),40720,True,False,False,True,False,False,False,False,False,False,"41.780309, -87.605857",41.780309,-87.605857,60637,40,60637,7922
30140,W,Cottage Grove (Harlem-bound),Cottage Grove,Cottage Grove (Green Line),40720,True,False,False,True,False,False,False,False,False,False,"41.780309, -87.605857",41.780309,-87.605857,60637,41,60637,8533
30140,W,Cottage Grove (Harlem-bound),Cottage Grove,Cottage Grove (Green Line),40720,True,False,False,True,False,False,False,False,False,False,"41.780309, -87.605857",41.780309,-87.605857,60637,42,60637,23739
30140,W,Cottage Grove (Harlem-bound),Cottage Grove,Cottage Grove (Green Line),40720,True,False,False,True,False,False,False,False,False,False,"41.780309, -87.605857",41.780309,-87.605857,60637,43,60637,2329
30140,W,Cottage Grove (Harlem-bound),Cottage Grove,Cottage Grove (Green Line),40720,True,False,False,True,False,False,False,False,False,False,"41.780309, -87.605857",41.780309,-87.605857,60637,69,60637,6980
30045,S,Cumberland (Forest Pk-bound),Cumberland,Cumberland (Blue Line),40230,True,False,True,False,False,False,False,False,False,False,"41.984246, -87.838028",41.984246,-87.838028,60631,09,60631,11187
30045,S,Cumberland (Forest Pk-bound),Cumberland,Cumberland (Blue Line),40230,True,False,True,False,False,False,False,False,False,False,"41.984246, -87.838028",41.984246,-87.838028,60631,10,60631,16534
30045,S,Cumberland (Forest Pk-bound),Cumberland,Cumberland (Blue Line),40230,True,False,True,False,False,False,False,False,False,False,"41.984246, -87.838028",41.984246,-87.838028,60631,76,60631,479
30044,N,Cumberland (O'Hare-bound),Cumberland,Cumberland (Blue Line),40230,True,False,True,False,False,False,False,False,False,False,"41.984246, -87.838028",41.984246,-87.838028,60631,09,60631,11187
30044,N,Cumberland (O'Hare-bound),Cumberland,Cumberland (Blue Line),40230,True,False,True,False,False,False,False,False,False,False,"41.984246, -87.838028",41.984246,-87.838028,60631,10,60631,16534
30044,N,Cumberland (O'Hare-bound),Cumberland,Cumberland (Blue Line),40230,True,False,True,False,False,False,False,False,False,False,"41.984246, -87.838028",41.984246,-87.838028,60631,76,60631,479
30146,S,Harlem (O'Hare Branch) (Forest Pk-bound),Harlem,Harlem (Blue Line - O'Hare Branch),40750,True,False,True,False,False,False,False,False,False,False,"41.98227, -87.8089",41.98227,-87.8089,60631,09,60631,11187
30146,S,Harlem (O'Hare Branch) (Forest Pk-bound),Harlem,Harlem (Blue Line - O'Hare Branch),40750,True,False,True,False,False,False,False,False,False,False,"41.98227, -87.8089",41.98227,-87.8089,60631,10,60631,16534
30146,S,Harlem (O'Hare Branch) (Forest Pk-bound),Harlem,Harlem (Blue Line - O'Hare Branch),40750,True,False,True,False,False,False,False,False,False,False,"41.98227, -87.8089",41.98227,-87.8089,60631,76,60631,479
30145,N,Harlem (O'Hare Branch) (O'Hare-bound),Harlem,Harlem (Blue Line - O'Hare Branch),40750,True,False,True,False,False,False,False,False,False,False,"41.98227, -87.8089",41.98227,-87.8089,60631,09,60631,11187
30145,N,Harlem (O'Hare Branch) (O'Hare-bound),Harlem,Harlem (Blue Line - O'Hare Branch),40750,True,False,True,False,False,False,False,False,False,False,"41.98227, -87.8089",41.98227,-87.8089,60631,10,60631,16534
30145,N,Harlem (O'Hare Branch) (O'Hare-bound),Harlem,Harlem (Blue Line - O'Hare Branch),40750,True,False,True,False,False,False,False,False,False,False,"41.98227, -87.8089",41.98227,-87.8089,60631,76,60631,479
30116,S,Damen/Milwaukee (Forest Pk-bound),Damen,Damen (Blue Line),40590,False,False,True,False,False,False,False,False,False,False,"41.909744, -87.677437",41.909744,-87.677437,60622,22,60622,1936
30116,S,Damen/Milwaukee (Forest Pk-bound),Damen,Damen (Blue Line),40590,False,False,True,False,False,False,False,False,False,False,"41.909744, -87.677437",41.909744,-87.677437,60622,23,60622,416
30116,S,Damen/Milwaukee (Forest Pk-bound),Damen,Damen (Blue Line),40590,False,False,True,False,False,False,False,False,False,False,"41.909744, -87.677437",41.909744,-87.677437,60622,24,60622,50196
30115,N,Damen/Milwaukee (O'Hare-bound),Damen,Damen (Blue Line),40590,False,False,True,False,False,False,False,False,False,False,"41.909744, -87.677437",41.909744,-87.677437,60622,22,60622,1936
30115,N,Damen/Milwaukee (O'Hare-bound),Damen,Damen (Blue Line),40590,False,False,True,False,False,False,False,False,False,False,"41.909744, -87.677437",41.909744,-87.677437,60622,23,60622,416
30115,N,Damen/Milwaukee (O'Hare-bound),Damen,Damen (Blue Line),40590,False,False,True,False,False,False,False,False,False,False,"41.909744, -87.677437",41.909744,-87.677437,60622,24,60622,50196
30018,N,Damen (Kimball-bound),Damen,Damen (Brown Line),40090,True,False,False,False,True,False,False,False,False,False,"41.966286, -87.678639",41.966286,-87.678639,60625,04,60625,33115
30018,N,Damen (Kimball-bound),Damen,Damen (Brown Line),40090,True,False,False,False,True,False,False,False,False,False,"41.966286, -87.678639",41.966286,-87.678639,60625,13,60625,6101
30018,N,Damen (Kimball-bound),Damen,Damen (Brown Line),40090,True,False,False,False,True,False,False,False,False,False,"41.966286, -87.678639",41.966286,-87.678639,60625,14,60625,39435
30019,S,Damen (Loop-bound),Damen,Damen (Brown Line),40090,True,False,False,False,True,False,False,False,False,False,"41.966286, -87.678639",41.966286,-87.678639,60625,04,60625,33115
30019,S,Damen (Loop-bound),Damen,Damen (Brown Line),40090,True,False,False,False,True,False,False,False,False,False,"41.966286, -87.678639",41.966286,-87.678639,60625,13,60625,6101
30019,S,Damen (Loop-bound),Damen,Damen (Brown Line),40090,True,False,False,False,True,False,False,False,False,False,"41.966286, -87.678639",41.966286,-87.678639,60625,14,60625,39435
30167,N,Francisco (Kimball-bound),Francisco,Francisco (Brown Line),40870,True,False,False,False,True,False,False,False,False,False,"41.966046, -87.701644",41.966046,-87.701644,60625,04,60625,33115
30167,N,Francisco (Kimball-bound),Francisco,Francisco (Brown Line),40870,True,False,False,False,True,False,False,False,False,False,"41.966046, -87.701644",41.966046,-87.701644,60625,13,60625,6101
30167,N,Francisco (Kimball-bound),Francisco,Francisco (Brown Line),40870,True,False,False,False,True,False,False,False,False,False,"41.966046, -87.701644",41.966046,-87.701644,60625,14,60625,39435
30168,S,Francisco (Loop-bound),Francisco,Francisco (Brown Line),40870,True,False,False,False,True,False,False,False,False,False,"41.966046, -87.701644",41.966046,-87.701644,60625,04,60625,33115
30168,S,Francisco (Loop-bound),Francisco,Francisco (Brown Line),40870,True,False,False,False,True,False,False,False,False,False,"41.966046, -87.701644",41.966046,-87.701644,60625,13,60625,6101
30168,S,Francisco (Loop-bound),Francisco,Francisco (Brown Line),40870,True,False,False,False,True,False,False,False,False,False,"41.966046, -87.701644",41.966046,-87.701644,60625,14,60625,39435
30225,N,Kedzie (Kimball-bound),Kedzie,Kedzie (Brown Line),41180,True,False,False,False,True,False,False,False,False,False,"41.965996, -87.708821",41.965996,-87.708821,60625,04,60625,33115
30225,N,Kedzie (Kimball-bound),Kedzie,Kedzie (Brown Line),41180,True,False,False,False,True,False,False,False,False,False,"41.965996, -87.708821",41.965996,-87.708821,60625,13,60625,6101
30225,N,Kedzie (Kimball-bound),Kedzie,Kedzie (Brown Line),41180,True,False,False,False,True,False,False,False,False,False,"41.965996, -87.708821",41.965996,-87.708821,60625,14,60625,39435
30226,S,Kedzie (Loop-bound),Kedzie,Kedzie (Brown Line),41180,True,False,False,False,True,False,False,False,False,False,"41.965996, -87.708821",41.965996,-87.708821,60625,04,60625,33115
30226,S,Kedzie (Loop-bound),Kedzie,Kedzie (Brown Line),41180,True,False,False,False,True,False,False,False,False,False,"41.965996, -87.708821",41.965996,-87.708821,60625,13,60625,6101
30226,S,Kedzie (Loop-bound),Kedzie,Kedzie (Brown Line),41180,True,False,False,False,True,False,False,False,False,False,"41.965996, -87.708821",41.965996,-87.708821,60625,14,60625,39435
30250,S,Kimball (Loop-bound),Kimball,Kimball (Brown Line),41290,True,False,False,False,True,False,False,False,False,False,"41.967901, -87.713065",41.967901,-87.713065,60625,04,60625,33115
30250,S,Kimball (Loop-bound),Kimball,Kimball (Brown Line),41290,True,False,False,False,True,False,False,False,False,False,"41.967901, -87.713065",41.967901,-87.713065,60625,13,60625,6101
30250,S,Kimball (Loop-bound),Kimball,Kimball (Brown Line),41290,True,False,False,False,True,False,False,False,False,False,"41.967901, -87.713065",41.967901,-87.713065,60625,14,60625,39435
30249,N,Kimball (Terminal arrival),Kimball,Kimball (Brown Line),41290,True,False,False,False,True,False,False,False,False,False,"41.967901, -87.713065",41.967901,-87.713065,60625,04,60625,33115
30249,N,Kimball (Terminal arrival),Kimball,Kimball (Brown Line),41290,True,False,False,False,True,False,False,False,False,False,"41.967901, -87.713065",41.967901,-87.713065,60625,13,60625,6101
30249,N,Kimball (Terminal arrival),Kimball,Kimball (Brown Line),41290,True,False,False,False,True,False,False,False,False,False,"41.967901, -87.713065",41.967901,-87.713065,60625,14,60625,39435
30195,N,Rockwell (Kimball-bound),Rockwell,Rockwell (Brown Line),41010,True,False,False,False,True,False,False,False,False,False,"41.966115, -87.6941",41.966115,-87.6941,60625,04,60625,33115
30195,N,Rockwell (Kimball-bound),Rockwell,Rockwell (Brown Line),41010,True,False,False,False,True,False,False,False,False,False,"41.966115, -87.6941",41.966115,-87.6941,60625,13,60625,6101
30195,N,Rockwell (Kimball-bound),Rockwell,Rockwell (Brown Line),41010,True,False,False,False,True,False,False,False,False,False,"41.966115, -87.6941",41.966115,-87.6941,60625,14,60625,39435
30196,S,Rockwell (Loop-bound),Rockwell,Rockwell (Brown Line),41010,True,False,False,False,True,False,False,False,False,False,"41.966115, -87.6941",41.966115,-87.6941,60625,04,60625,33115
30196,S,Rockwell (Loop-bound),Rockwell,Rockwell (Brown Line),41010,True,False,False,False,True,False,False,False,False,False,"41.966115, -87.6941",41.966115,-87.6941,60625,13,60625,6101
30196,S,Rockwell (Loop-bound),Rockwell,Rockwell (Brown Line),41010,True,False,False,False,True,False,False,False,False,False,"41.966115, -87.6941",41.966115,-87.6941,60625,14,60625,39435
30283,N,Western (Kimball-bound),Western,Western (Brown Line),41480,True,False,False,False,True,False,False,False,False,False,"41.966163, -87.688502",41.966163,-87.688502,60625,04,60625,33115
30283,N,Western (Kimball-bound),Western,Western (Brown Line),41480,True,False,False,False,True,False,False,False,False,False,"41.966163, -87.688502",41.966163,-87.688502,60625,13,60625,6101
30283,N,Western (Kimball-bound),Western,Western (Brown Line),41480,True,False,False,False,True,False,False,False,False,False,"41.966163, -87.688502",41.966163,-87.688502,60625,14,60625,39435
30284,S,Western (Loop-bound),Western,Western (Brown Line),41480,True,False,False,False,True,False,False,False,False,False,"41.966163, -87.688502",41.966163,-87.688502,60625,04,60625,33115
30284,S,Western (Loop-bound),Western,Western (Brown Line),41480,True,False,False,False,True,False,False,False,False,False,"41.966163, -87.688502",41.966163,-87.688502,60625,13,60625,6101
30284,S,Western (Loop-bound),Western,Western (Brown Line),41480,True,False,False,False,True,False,False,False,False,False,"41.966163, -87.688502",41.966163,-87.688502,60625,14,60625,39435
30063,S,Division (Forest Pk-bound),Division,Division (Blue Line),40320,False,False,True,False,False,False,False,False,False,False,"41.903355, -87.666496",41.903355,-87.666496,60642,07,60642,0
30063,S,Division (Forest Pk-bound),Division,Division (Blue Line),40320,False,False,True,False,False,False,False,False,False,False,"41.903355, -87.666496",41.903355,-87.666496,60642,08,60642,268
30063,S,Division (Forest Pk-bound),Division,Division (Blue Line),40320,False,False,True,False,False,False,False,False,False,False,"41.903355, -87.666496",41.903355,-87.666496,60642,22,60642,1
30063,S,Division (Forest Pk-bound),Division,Division (Blue Line),40320,False,False,True,False,False,False,False,False,False,False,"41.903355, -87.666496",41.903355,-87.666496,60642,24,60642,18211
30062,N,Division (O'Hare-bound),Division,Division (Blue Line),40320,False,False,True,False,False,False,False,False,False,False,"41.903355, -87.666496",41.903355,-87.666496,60642,07,60642,0
30062,N,Division (O'Hare-bound),Division,Division (Blue Line),40320,False,False,True,False,False,False,False,False,False,False,"41.903355, -87.666496",41.903355,-87.666496,60642,08,60642,268
30062,N,Division (O'Hare-bound),Division,Division (Blue Line),40320,False,False,True,False,False,False,False,False,False,False,"41.903355, -87.666496",41.903355,-87.666496,60642,22,60642,1
30062,N,Division (O'Hare-bound),Division,Division (Blue Line),40320,False,False,True,False,False,False,False,False,False,False,"41.903355, -87.666496",41.903355,-87.666496,60642,24,60642,18211
30126,S,North/Clybourn (95th-bound),North/Clybourn,North/Clybourn (Red Line),40650,False,True,False,False,False,False,False,False,False,False,"41.910655, -87.649177",41.910655,-87.649177,60642,07,60642,0
30126,S,North/Clybourn (95th-bound),North/Clybourn,North/Clybourn (Red Line),40650,False,True,False,False,False,False,False,False,False,False,"41.910655, -87.649177",41.910655,-87.649177,60642,08,60642,268
30126,S,North/Clybourn (95th-bound),North/Clybourn,North/Clybourn (Red Line),40650,False,True,False,False,False,False,False,False,False,False,"41.910655, -87.649177",41.910655,-87.649177,60642,22,60642,1
30126,S,North/Clybourn (95th-bound),North/Clybourn,North/Clybourn (Red Line),40650,False,True,False,False,False,False,False,False,False,False,"41.910655, -87.649177",41.910655,-87.649177,60642,24,60642,18211
30125,N,North/Clybourn (Howard-bound),North/Clybourn,North/Clybourn (Red Line),40650,False,True,False,False,False,False,False,False,False,False,"41.910655, -87.649177",41.910655,-87.649177,60642,07,60642,0
30125,N,North/Clybourn (Howard-bound),North/Clybourn,North/Clybourn (Red Line),40650,False,True,False,False,False,False,False,False,False,False,"41.910655, -87.649177",41.910655,-87.649177,60642,08,60642,268
30125,N,North/Clybourn (Howard-bound),North/Clybourn,North/Clybourn (Red Line),40650,False,True,False,False,False,False,False,False,False,False,"41.910655, -87.649177",41.910655,-87.649177,60642,22,60642,1
30125,N,North/Clybourn (Howard-bound),North/Clybourn,North/Clybourn (Red Line),40650,False,True,False,False,False,False,False,False,False,False,"41.910655, -87.649177",41.910655,-87.649177,60642,24,60642,18211
30271,N,Chicago (O'Hare-bound),Chicago,Chicago (Blue Line),41410,False,False,True,False,False,False,False,False,False,False,"41.896075, -87.655214",41.896075,-87.655214,60642,07,60642,0
30271,N,Chicago (O'Hare-bound),Chicago,Chicago (Blue Line),41410,False,False,True,False,False,False,False,False,False,False,"41.896075, -87.655214",41.896075,-87.655214,60642,08,60642,268
30271,N,Chicago (O'Hare-bound),Chicago,Chicago (Blue Line),41410,False,False,True,False,False,False,False,False,False,False,"41.896075, -87.655214",41.896075,-87.655214,60642,22,60642,1
30271,N,Chicago (O'Hare-bound),Chicago,Chicago (Blue Line),41410,False,False,True,False,False,False,False,False,False,False,"41.896075, -87.655214",41.896075,-87.655214,60642,24,60642,18211
30272,S,Chicago (Forest Pk-bound),Chicago,Chicago (Blue Line),41410,False,False,True,False,False,False,False,False,False,False,"41.896075, -87.655214",41.896075,-87.655214,60642,07,60642,0
30272,S,Chicago (Forest Pk-bound),Chicago,Chicago (Blue Line),41410,False,False,True,False,False,False,False,False,False,False,"41.896075, -87.655214",41.896075,-87.655214,60642,08,60642,268
30272,S,Chicago (Forest Pk-bound),Chicago,Chicago (Blue Line),41410,False,False,True,False,False,False,False,False,False,False,"41.896075, -87.655214",41.896075,-87.655214,60642,22,60642,1
30272,S,Chicago (Forest Pk-bound),Chicago,Chicago (Blue Line),41410,False,False,True,False,False,False,False,False,False,False,"41.896075, -87.655214",41.896075,-87.655214,60642,24,60642,18211
30096,S,Grand/Milwaukee (Forest Pk-bound),Grand,Grand (Blue Line),40490,False,False,True,False,False,False,False,False,False,False,"41.891189, -87.647578",41.891189,-87.647578,60654,08,60654,14036
30096,S,Grand/Milwaukee (Forest Pk-bound),Grand,Grand (Blue Line),40490,False,False,True,False,False,False,False,False,False,False,"41.891189, -87.647578",41.891189,-87.647578,60654,24,60654,837
30096,S,Grand/Milwaukee (Forest Pk-bound),Grand,Grand (Blue Line),40490,False,False,True,False,False,False,False,False,False,False,"41.891189, -87.647578",41.891189,-87.647578,60654,28,60654,0
30096,S,Grand/Milwaukee (Forest Pk-bound),Grand,Grand (Blue Line),40490,False,False,True,False,False,False,False,False,False,False,"41.891189, -87.647578",41.891189,-87.647578,60654,32,60654,2
30095,N,Grand/Milwaukee (O'Hare-bound),Grand,Grand (Blue Line),40490,False,False,True,False,False,False,False,False,False,False,"41.891189, -87.647578",41.891189,-87.647578,60654,08,60654,14036
30095,N,Grand/Milwaukee (O'Hare-bound),Grand,Grand (Blue Line),40490,False,False,True,False,False,False,False,False,False,False,"41.891189, -87.647578",41.891189,-87.647578,60654,24,60654,837
30095,N,Grand/Milwaukee (O'Hare-bound),Grand,Grand (Blue Line),40490,False,False,True,False,False,False,False,False,False,False,"41.891189, -87.647578",41.891189,-87.647578,60654,28,60654,0
30095,N,Grand/Milwaukee (O'Hare-bound),Grand,Grand (Blue Line),40490,False,False,True,False,False,False,False,False,False,False,"41.891189, -87.647578",41.891189,-87.647578,60654,32,60654,2
30090,N,Merchandise Mart (Kimball-Linden-bound),Merchandise Mart,Merchandise Mart (Brown & Purple Lines),40460,True,False,False,False,True,False,True,False,False,False,"41.888969, -87.633924",41.888969,-87.633924,60654,08,60654,14036
30090,N,Merchandise Mart (Kimball-Linden-bound),Merchandise Mart,Merchandise Mart (Brown & Purple Lines),40460,True,False,False,False,True,False,True,False,False,False,"41.888969, -87.633924",41.888969,-87.633924,60654,24,60654,837
30090,N,Merchandise Mart (Kimball-Linden-bound),Merchandise Mart,Merchandise Mart (Brown & Purple Lines),40460,True,False,False,False,True,False,True,False,False,False,"41.888969, -87.633924",41.888969,-87.633924,60654,28,60654,0
30090,N,Merchandise Mart (Kimball-Linden-bound),Merchandise Mart,Merchandise Mart (Brown & Purple Lines),40460,True,False,False,False,True,False,True,False,False,False,"41.888969, -87.633924",41.888969,-87.633924,60654,32,60654,2
30091,S,Merchandise Mart (Loop-bound),Merchandise Mart,Merchandise Mart (Brown & Purple Lines),40460,True,False,False,False,True,False,True,False,False,False,"41.888969, -87.633924",41.888969,-87.633924,60654,08,60654,14036
30091,S,Merchandise Mart (Loop-bound),Merchandise Mart,Merchandise Mart (Brown & Purple Lines),40460,True,False,False,False,True,False,True,False,False,False,"41.888969, -87.633924",41.888969,-87.633924,60654,24,60654,837
30091,S,Merchandise Mart (Loop-bound),Merchandise Mart,Merchandise Mart (Brown & Purple Lines),40460,True,False,False,False,True,False,True,False,False,False,"41.888969, -87.633924",41.888969,-87.633924,60654,28,60654,0
30091,S,Merchandise Mart (Loop-bound),Merchandise Mart,Merchandise Mart (Brown & Purple Lines),40460,True,False,False,False,True,False,True,False,False,False,"41.888969, -87.633924",41.888969,-87.633924,60654,32,60654,2
30065,S,Grand/State (95th-bound),Grand,Grand (Red Line),40330,True,True,False,False,False,False,False,False,False,False,"41.891665, -87.628021",41.891665,-87.628021,60611,08,60611,28718
30064,N,Grand/State (Howard-bound),Grand,Grand (Red Line),40330,True,True,False,False,False,False,False,False,False,False,"41.891665, -87.628021",41.891665,-87.628021,60611,08,60611,28718
30280,S,Chicago (95th-bound),Chicago,Chicago (Red Line),41450,True,True,False,False,False,False,False,False,False,False,"41.896671, -87.628176",41.896671,-87.628176,60611,08,60611,28718
30279,N,Chicago (Howard-bound),Chicago,Chicago (Red Line),41450,True,True,False,False,False,False,False,False,False,False,"41.896671, -87.628176",41.896671,-87.628176,60611,08,60611,28718
30286,S,Harrison (95th-bound),Harrison,Harrison (Red Line),41490,False,True,False,False,False,False,False,False,False,False,"41.874039, -87.627479",41.874039,-87.627479,60605,32,60605,13355
30286,S,Harrison (95th-bound),Harrison,Harrison (Red Line),41490,False,True,False,False,False,False,False,False,False,False,"41.874039, -87.627479",41.874039,-87.627479,60605,33,60605,11313
30285,N,Harrison (Howard-bound),Harrison,Harrison (Red Line),41490,False,True,False,False,False,False,False,False,False,False,"41.874039, -87.627479",41.874039,-87.627479,60605,32,60605,13355
30285,N,Harrison (Howard-bound),Harrison,Harrison (Red Line),41490,False,True,False,False,False,False,False,False,False,False,"41.874039, -87.627479",41.874039,-87.627479,60605,33,60605,11313
30166,W,H.W. Library (Inner Loop),Harold Washington Library-State/Van Buren,"Harold Washington Library-State/Van Buren (Brown, Orange, Purple & Pink Lines)",40850,True,False,False,False,False,False,True,False,True,True,"41.876862, -87.628196",41.876862,-87.628196,60605,32,60605,13355
30166,W,H.W. Library (Inner Loop),Harold Washington Library-State/Van Buren,"Harold Washington Library-State/Van Buren (Brown, Orange, Purple & Pink Lines)",40850,True,False,False,False,False,False,True,False,True,True,"41.876862, -87.628196",41.876862,-87.628196,60605,33,60605,11313
30262,W,LaSalle (Forest Pk-bound),LaSalle,LaSalle (Blue Line),41340,False,False,True,False,False,False,False,False,False,False,"41.875568, -87.631722",41.875568,-87.631722,60605,32,60605,13355
30262,W,LaSalle (Forest Pk-bound),LaSalle,LaSalle (Blue Line),41340,False,False,True,False,False,False,False,False,False,False,"41.875568, -87.631722",41.875568,-87.631722,60605,33,60605,11313
30261,E,LaSalle (O'Hare-bound),LaSalle,LaSalle (Blue Line),41340,False,False,True,False,False,False,False,False,False,False,"41.875568, -87.631722",41.875568,-87.631722,60605,32,60605,13355
30261,E,LaSalle (O'Hare-bound),LaSalle,LaSalle (Blue Line),41340,False,False,True,False,False,False,False,False,False,False,"41.875568, -87.631722",41.875568,-87.631722,60605,33,60605,11313
30031,W,LaSalle/Van Buren (Inner Loop),LaSalle/Van Buren,"LaSalle/Van Buren (Brown, Orange, Purple & Pink Lines)",40160,False,False,False,False,False,False,True,False,True,True,"41.8768, -87.631739",41.8768,-87.631739,60605,32,60605,13355
30031,W,LaSalle/Van Buren (Inner Loop),LaSalle/Van Buren,"LaSalle/Van Buren (Brown, Orange, Purple & Pink Lines)",40160,False,False,False,False,False,False,True,False,True,True,"41.8768, -87.631739",41.8768,-87.631739,60605,33,60605,11313
30030,E,LaSalle/Van Buren (Outer Loop),LaSalle/Van Buren,"LaSalle/Van Buren (Brown, Orange, Purple & Pink Lines)",40160,False,False,False,False,True,False,False,False,False,False,"41.8768, -87.631739",41.8768,-87.631739,60605,32,60605,13355
30030,E,LaSalle/Van Buren (Outer Loop),LaSalle/Van Buren,"LaSalle/Van Buren (Brown, Orange, Purple & Pink Lines)",40160,False,False,False,False,True,False,False,False,False,False,"41.8768, -87.631739",41.8768,-87.631739,60605,33,60605,11313
30080,N,Roosevelt (Loop-Harlem-bound),Roosevelt,"Roosevelt (Red, Orange & Green Lines)",41400,True,False,False,True,False,False,False,False,False,True,"41.867405, -87.62659",41.867405,-87.62659,60605,32,60605,13355
30080,N,Roosevelt (Loop-Harlem-bound),Roosevelt,"Roosevelt (Red, Orange & Green Lines)",41400,True,False,False,True,False,False,False,False,False,True,"41.867405, -87.62659",41.867405,-87.62659,60605,33,60605,11313
30269,N,Roosevelt (Howard-bound),Roosevelt,"Roosevelt (Red, Orange & Green Lines)",41400,True,True,False,False,False,False,False,False,False,False,"41.867368, -87.627402",41.867368,-87.627402,60605,32,60605,13355
30269,N,Roosevelt (Howard-bound),Roosevelt,"Roosevelt (Red, Orange & Green Lines)",41400,True,True,False,False,False,False,False,False,False,False,"41.867368, -87.627402",41.867368,-87.627402,60605,33,60605,11313
30081,S,Roosevelt (Midway-63rd-bound),Roosevelt,"Roosevelt (Red, Orange & Green Lines)",41400,True,False,False,True,False,False,False,False,False,True,"41.867405, -87.62659",41.867405,-87.62659,60605,32,60605,13355
30081,S,Roosevelt (Midway-63rd-bound),Roosevelt,"Roosevelt (Red, Orange & Green Lines)",41400,True,False,False,True,False,False,False,False,False,True,"41.867405, -87.62659",41.867405,-87.62659,60605,33,60605,11313
30165,E,H.W. Library (Outer Loop),Harold Washington Library-State/Van Buren,"Harold Washington Library-State/Van Buren (Brown, Orange, Purple & Pink Lines)",40850,True,False,False,False,True,False,False,False,False,False,"41.876862, -87.628196",41.876862,-87.628196,60605,32,60605,13355
30165,E,H.W. Library (Outer Loop),Harold Washington Library-State/Van Buren,"Harold Washington Library-State/Van Buren (Brown, Orange, Purple & Pink Lines)",40850,True,False,False,False,True,False,False,False,False,False,"41.876862, -87.628196",41.876862,-87.628196,60605,33,60605,11313
30270,S,Roosevelt (95th-bound),Roosevelt,"Roosevelt (Red, Orange & Green Lines)",41400,True,True,False,False,False,False,False,False,False,False,"41.867368, -87.627402",41.867368,-87.627402,60605,32,60605,13355
30270,S,Roosevelt (95th-bound),Roosevelt,"Roosevelt (Red, Orange & Green Lines)",41400,True,True,False,False,False,False,False,False,False,False,"41.867368, -87.627402",41.867368,-87.627402,60605,33,60605,11313
30176,S,Howard (Terminal arrival),Howard,"Howard (Red, Purple & Yellow Lines)",40900,True,False,False,False,False,True,True,True,False,False,"42.019063, -87.672892",42.019063,-87.672892,60626,01,60626,48980
30176,S,Howard (Terminal arrival),Howard,"Howard (Red, Purple & Yellow Lines)",40900,True,False,False,False,False,True,True,True,False,False,"42.019063, -87.672892",42.019063,-87.672892,60626,02,60626,1159
30173,N,Howard (Terminal arrival),Howard,"Howard (Red, Purple & Yellow Lines)",40900,True,True,False,False,False,False,False,False,False,False,"42.019063, -87.672892",42.019063,-87.672892,60626,01,60626,48980
30173,N,Howard (Terminal arrival),Howard,"Howard (Red, Purple & Yellow Lines)",40900,True,True,False,False,False,False,False,False,False,False,"42.019063, -87.672892",42.019063,-87.672892,60626,02,60626,1159
30174,S,Howard (95th-Bound),Howard,"Howard (Red, Purple & Yellow Lines)",40900,True,True,False,False,False,False,False,False,False,False,"42.019063, -87.672892",42.019063,-87.672892,60626,01,60626,48980
30174,S,Howard (95th-Bound),Howard,"Howard (Red, Purple & Yellow Lines)",40900,True,True,False,False,False,False,False,False,False,False,"42.019063, -87.672892",42.019063,-87.672892,60626,02,60626,1159
30228,S,Jarvis (95th-bound),Jarvis,Jarvis (Red Line),41190,False,True,False,False,False,False,False,False,False,False,"42.015876, -87.669092",42.015876,-87.669092,60626,01,60626,48980
30228,S,Jarvis (95th-bound),Jarvis,Jarvis (Red Line),41190,False,True,False,False,False,False,False,False,False,False,"42.015876, -87.669092",42.015876,-87.669092,60626,02,60626,1159
30227,N,Jarvis (Howard-bound),Jarvis,Jarvis (Red Line),41190,False,True,False,False,False,False,False,False,False,False,"42.015876, -87.669092",42.015876,-87.669092,60626,01,60626,48980
30227,N,Jarvis (Howard-bound),Jarvis,Jarvis (Red Line),41190,False,True,False,False,False,False,False,False,False,False,"42.015876, -87.669092",42.015876,-87.669092,60626,02,60626,1159
30252,S,Loyola (95th-bound),Loyola,Loyola (Red Line),41300,True,True,False,False,False,False,False,False,False,False,"42.001073, -87.661061",42.001073,-87.661061,60626,01,60626,48980
30252,S,Loyola (95th-bound),Loyola,Loyola (Red Line),41300,True,True,False,False,False,False,False,False,False,False,"42.001073, -87.661061",42.001073,-87.661061,60626,02,60626,1159
30251,N,Loyola (Howard-bound),Loyola,Loyola (Red Line),41300,True,True,False,False,False,False,False,False,False,False,"42.001073, -87.661061",42.001073,-87.661061,60626,01,60626,48980
30251,N,Loyola (Howard-bound),Loyola,Loyola (Red Line),41300,True,True,False,False,False,False,False,False,False,False,"42.001073, -87.661061",42.001073,-87.661061,60626,02,60626,1159
30021,S,Morse (95th-bound),Morse,Morse (Red Line),40100,False,True,False,False,False,False,False,False,False,False,"42.008362, -87.665909",42.008362,-87.665909,60626,01,60626,48980
30021,S,Morse (95th-bound),Morse,Morse (Red Line),40100,False,True,False,False,False,False,False,False,False,False,"42.008362, -87.665909",42.008362,-87.665909,60626,02,60626,1159
30020,N,Morse (Howard-bound),Morse,Morse (Red Line),40100,False,True,False,False,False,False,False,False,False,False,"42.008362, -87.665909",42.008362,-87.665909,60626,01,60626,48980
30020,N,Morse (Howard-bound),Morse,Morse (Red Line),40100,False,True,False,False,False,False,False,False,False,False,"42.008362, -87.665909",42.008362,-87.665909,60626,02,60626,1159
30175,N,"Howard (Linden, Skokie-bound)",Howard,"Howard (Red, Purple & Yellow Lines)",40900,True,False,False,False,False,True,True,True,False,False,"42.019063, -87.672892",42.019063,-87.672892,60626,01,60626,48980
30175,N,"Howard (Linden, Skokie-bound)",Howard,"Howard (Red, Purple & Yellow Lines)",40900,True,False,False,False,False,True,True,True,False,False,"42.019063, -87.672892",42.019063,-87.672892,60626,02,60626,1159
30108,S,Irving Park (O'Hare Branch) (Forest Pk-bound),Irving Park,Irving Park (Blue Line),40550,False,False,True,False,False,False,False,False,False,False,"41.952925, -87.729229",41.952925,-87.729229,60641,14,60641,43
30108,S,Irving Park (O'Hare Branch) (Forest Pk-bound),Irving Park,Irving Park (Blue Line),40550,False,False,True,False,False,False,False,False,False,False,"41.952925, -87.729229",41.952925,-87.729229,60641,15,60641,33165
30108,S,Irving Park (O'Hare Branch) (Forest Pk-bound),Irving Park,Irving Park (Blue Line),40550,False,False,True,False,False,False,False,False,False,False,"41.952925, -87.729229",41.952925,-87.729229,60641,16,60641,17057
30108,S,Irving Park (O'Hare Branch) (Forest Pk-bound),Irving Park,Irving Park (Blue Line),40550,False,False,True,False,False,False,False,False,False,False,"41.952925, -87.729229",41.952925,-87.729229,60641,19,60641,13826
30108,S,Irving Park (O'Hare Branch) (Forest Pk-bound),Irving Park,Irving Park (Blue Line),40550,False,False,True,False,False,False,False,False,False,False,"41.952925, -87.729229",41.952925,-87.729229,60641,20,60641,4283
30108,S,Irving Park (O'Hare Branch) (Forest Pk-bound),Irving Park,Irving Park (Blue Line),40550,False,False,True,False,False,False,False,False,False,False,"41.952925, -87.729229",41.952925,-87.729229,60641,21,60641,3289
30107,N,Irving Park (O'Hare Branch) (O'Hare-bound),Irving Park,Irving Park (Blue Line),40550,False,False,True,False,False,False,False,False,False,False,"41.952925, -87.729229",41.952925,-87.729229,60641,14,60641,43
30107,N,Irving Park (O'Hare Branch) (O'Hare-bound),Irving Park,Irving Park (Blue Line),40550,False,False,True,False,False,False,False,False,False,False,"41.952925, -87.729229",41.952925,-87.729229,60641,15,60641,33165
30107,N,Irving Park (O'Hare Branch) (O'Hare-bound),Irving Park,Irving Park (Blue Line),40550,False,False,True,False,False,False,False,False,False,False,"41.952925, -87.729229",41.952925,-87.729229,60641,16,60641,17057
30107,N,Irving Park (O'Hare Branch) (O'Hare-bound),Irving Park,Irving Park (Blue Line),40550,False,False,True,False,False,False,False,False,False,False,"41.952925, -87.729229",41.952925,-87.729229,60641,19,60641,13826
30107,N,Irving Park (O'Hare Branch) (O'Hare-bound),Irving Park,Irving Park (Blue Line),40550,False,False,True,False,False,False,False,False,False,False,"41.952925, -87.729229",41.952925,-87.729229,60641,20,60641,4283
30107,N,Irving Park (O'Hare Branch) (O'Hare-bound),Irving Park,Irving Park (Blue Line),40550,False,False,True,False,False,False,False,False,False,False,"41.952925, -87.729229",41.952925,-87.729229,60641,21,60641,3289
30015,S,Jackson/Dearborn (Forest Pk-bound),Jackson,Jackson (Blue Line),40070,True,False,True,False,False,False,False,False,False,False,"41.878183, -87.629296",41.878183,-87.629296,60604,32,60604,570
30014,N,Jackson/Dearborn (O'Hare-bound),Jackson,Jackson (Blue Line),40070,True,False,True,False,False,False,False,False,False,False,"41.878183, -87.629296",41.878183,-87.629296,60604,32,60604,570
30110,S,Jackson/State (95th-bound),Jackson,Jackson (Red Line),40560,True,True,False,False,False,False,False,False,False,False,"41.878153, -87.627596",41.878153,-87.627596,60604,32,60604,570
30109,N,Jackson/State (Howard-bound),Jackson,Jackson (Red Line),40560,True,True,False,False,False,False,False,False,False,False,"41.878153, -87.627596",41.878153,-87.627596,60604,32,60604,570
30007,N,Quincy/Wells (Inner Loop),Quincy/Wells,"Quincy/Wells (Brown, Orange, Purple & Pink Lines)",40040,False,False,False,False,False,False,True,False,True,True,"41.878723, -87.63374",41.878723,-87.63374,60604,32,60604,570
30008,S,Quincy/Wells (Outer Loop),Quincy/Wells,"Quincy/Wells (Brown, Orange, Purple & Pink Lines)",40040,False,False,False,False,True,False,False,False,False,False,"41.878723, -87.63374",41.878723,-87.63374,60604,32,60604,570
30248,S,Jefferson Park (Forest Pk-bound),Jefferson Park,Jefferson Park (Blue Line),41280,True,False,True,False,False,False,False,False,False,False,"41.970634, -87.760892",41.970634,-87.760892,60630,10,60630,292
30248,S,Jefferson Park (Forest Pk-bound),Jefferson Park,Jefferson Park (Blue Line),41280,True,False,True,False,False,False,False,False,False,False,"41.970634, -87.760892",41.970634,-87.760892,60630,11,60630,20721
30248,S,Jefferson Park (Forest Pk-bound),Jefferson Park,Jefferson Park (Blue Line),41280,True,False,True,False,False,False,False,False,False,False,"41.970634, -87.760892",41.970634,-87.760892,60630,12,60630,3515
30248,S,Jefferson Park (Forest Pk-bound),Jefferson Park,Jefferson Park (Blue Line),41280,True,False,True,False,False,False,False,False,False,False,"41.970634, -87.760892",41.970634,-87.760892,60630,13,60630,766
30248,S,Jefferson Park (Forest Pk-bound),Jefferson Park,Jefferson Park (Blue Line),41280,True,False,True,False,False,False,False,False,False,False,"41.970634, -87.760892",41.970634,-87.760892,60630,14,60630,10765
30248,S,Jefferson Park (Forest Pk-bound),Jefferson Park,Jefferson Park (Blue Line),41280,True,False,True,False,False,False,False,False,False,False,"41.970634, -87.760892",41.970634,-87.760892,60630,15,60630,14234
30248,S,Jefferson Park (Forest Pk-bound),Jefferson Park,Jefferson Park (Blue Line),41280,True,False,True,False,False,False,False,False,False,False,"41.970634, -87.760892",41.970634,-87.760892,60630,16,60630,3800
30247,N,Jefferson Park (O'Hare-bound),Jefferson Park,Jefferson Park (Blue Line),41280,True,False,True,False,False,False,False,False,False,False,"41.970634, -87.760892",41.970634,-87.760892,60630,10,60630,292
30247,N,Jefferson Park (O'Hare-bound),Jefferson Park,Jefferson Park (Blue Line),41280,True,False,True,False,False,False,False,False,False,False,"41.970634, -87.760892",41.970634,-87.760892,60630,11,60630,20721
30247,N,Jefferson Park (O'Hare-bound),Jefferson Park,Jefferson Park (Blue Line),41280,True,False,True,False,False,False,False,False,False,False,"41.970634, -87.760892",41.970634,-87.760892,60630,12,60630,3515
30247,N,Jefferson Park (O'Hare-bound),Jefferson Park,Jefferson Park (Blue Line),41280,True,False,True,False,False,False,False,False,False,False,"41.970634, -87.760892",41.970634,-87.760892,60630,13,60630,766
30247,N,Jefferson Park (O'Hare-bound),Jefferson Park,Jefferson Park (Blue Line),41280,True,False,True,False,False,False,False,False,False,False,"41.970634, -87.760892",41.970634,-87.760892,60630,14,60630,10765
30247,N,Jefferson Park (O'Hare-bound),Jefferson Park,Jefferson Park (Blue Line),41280,True,False,True,False,False,False,False,False,False,False,"41.970634, -87.760892",41.970634,-87.760892,60630,15,60630,14234
30247,N,Jefferson Park (O'Hare-bound),Jefferson Park,Jefferson Park (Blue Line),41280,True,False,True,False,False,False,False,False,False,False,"41.970634, -87.760892",41.970634,-87.760892,60630,16,60630,3800
30260,S,Montrose (Forest Pk-bound),Montrose,Montrose (Blue Line),41330,False,False,True,False,False,False,False,False,False,False,"41.961539, -87.743574",41.961539,-87.743574,60630,10,60630,292
30260,S,Montrose (Forest Pk-bound),Montrose,Montrose (Blue Line),41330,False,False,True,False,False,False,False,False,False,False,"41.961539, -87.743574",41.961539,-87.743574,60630,11,60630,20721
30260,S,Montrose (Forest Pk-bound),Montrose,Montrose (Blue Line),41330,False,False,True,False,False,False,False,False,False,False,"41.961539, -87.743574",41.961539,-87.743574,60630,12,60630,3515
30260,S,Montrose (Forest Pk-bound),Montrose,Montrose (Blue Line),41330,False,False,True,False,False,False,False,False,False,False,"41.961539, -87.743574",41.961539,-87.743574,60630,13,60630,766
30260,S,Montrose (Forest Pk-bound),Montrose,Montrose (Blue Line),41330,False,False,True,False,False,False,False,False,False,False,"41.961539, -87.743574",41.961539,-87.743574,60630,14,60630,10765
30260,S,Montrose (Forest Pk-bound),Montrose,Montrose (Blue Line),41330,False,False,True,False,False,False,False,False,False,False,"41.961539, -87.743574",41.961539,-87.743574,60630,15,60630,14234
30260,S,Montrose (Forest Pk-bound),Montrose,Montrose (Blue Line),41330,False,False,True,False,False,False,False,False,False,False,"41.961539, -87.743574",41.961539,-87.743574,60630,16,60630,3800
30259,N,Montrose (O'Hare-bound),Montrose,Montrose (Blue Line),41330,False,False,True,False,False,False,False,False,False,False,"41.961539, -87.743574",41.961539,-87.743574,60630,10,60630,292
30259,N,Montrose (O'Hare-bound),Montrose,Montrose (Blue Line),41330,False,False,True,False,False,False,False,False,False,False,"41.961539, -87.743574",41.961539,-87.743574,60630,11,60630,20721
30259,N,Montrose (O'Hare-bound),Montrose,Montrose (Blue Line),41330,False,False,True,False,False,False,False,False,False,False,"41.961539, -87.743574",41.961539,-87.743574,60630,12,60630,3515
30259,N,Montrose (O'Hare-bound),Montrose,Montrose (Blue Line),41330,False,False,True,False,False,False,False,False,False,False,"41.961539, -87.743574",41.961539,-87.743574,60630,13,60630,766
30259,N,Montrose (O'Hare-bound),Montrose,Montrose (Blue Line),41330,False,False,True,False,False,False,False,False,False,False,"41.961539, -87.743574",41.961539,-87.743574,60630,14,60630,10765
30259,N,Montrose (O'Hare-bound),Montrose,Montrose (Blue Line),41330,False,False,True,False,False,False,False,False,False,False,"41.961539, -87.743574",41.961539,-87.743574,60630,15,60630,14234
30259,N,Montrose (O'Hare-bound),Montrose,Montrose (Blue Line),41330,False,False,True,False,False,False,False,False,False,False,"41.961539, -87.743574",41.961539,-87.743574,60630,16,60630,3800
30219,N,Kedzie (Loop-bound),Kedzie,Kedzie (Orange Line),41150,True,False,False,False,False,False,False,False,False,True,"41.804236, -87.704406",41.804236,-87.704406,60632,30,60632,0
30219,N,Kedzie (Loop-bound),Kedzie,Kedzie (Orange Line),41150,True,False,False,False,False,False,False,False,False,True,"41.804236, -87.704406",41.804236,-87.704406,60632,56,60632,3752
30219,N,Kedzie (Loop-bound),Kedzie,Kedzie (Orange Line),41150,True,False,False,False,False,False,False,False,False,True,"41.804236, -87.704406",41.804236,-87.704406,60632,57,60632,13393
30219,N,Kedzie (Loop-bound),Kedzie,Kedzie (Orange Line),41150,True,False,False,False,False,False,False,False,False,True,"41.804236, -87.704406",41.804236,-87.704406,60632,58,60632,45122
30219,N,Kedzie (Loop-bound),Kedzie,Kedzie (Orange Line),41150,True,False,False,False,False,False,False,False,False,True,"41.804236, -87.704406",41.804236,-87.704406,60632,59,60632,175
30219,N,Kedzie (Loop-bound),Kedzie,Kedzie (Orange Line),41150,True,False,False,False,False,False,False,False,False,True,"41.804236, -87.704406",41.804236,-87.704406,60632,62,60632,7243
30219,N,Kedzie (Loop-bound),Kedzie,Kedzie (Orange Line),41150,True,False,False,False,False,False,False,False,False,True,"41.804236, -87.704406",41.804236,-87.704406,60632,63,60632,21641
30220,S,Kedzie (Midway-bound),Kedzie,Kedzie (Orange Line),41150,True,False,False,False,False,False,False,False,False,True,"41.804236, -87.704406",41.804236,-87.704406,60632,30,60632,0
30220,S,Kedzie (Midway-bound),Kedzie,Kedzie (Orange Line),41150,True,False,False,False,False,False,False,False,False,True,"41.804236, -87.704406",41.804236,-87.704406,60632,56,60632,3752
30220,S,Kedzie (Midway-bound),Kedzie,Kedzie (Orange Line),41150,True,False,False,False,False,False,False,False,False,True,"41.804236, -87.704406",41.804236,-87.704406,60632,57,60632,13393
30220,S,Kedzie (Midway-bound),Kedzie,Kedzie (Orange Line),41150,True,False,False,False,False,False,False,False,False,True,"41.804236, -87.704406",41.804236,-87.704406,60632,58,60632,45122
30220,S,Kedzie (Midway-bound),Kedzie,Kedzie (Orange Line),41150,True,False,False,False,False,False,False,False,False,True,"41.804236, -87.704406",41.804236,-87.704406,60632,59,60632,175
30220,S,Kedzie (Midway-bound),Kedzie,Kedzie (Orange Line),41150,True,False,False,False,False,False,False,False,False,True,"41.804236, -87.704406",41.804236,-87.704406,60632,62,60632,7243
30220,S,Kedzie (Midway-bound),Kedzie,Kedzie (Orange Line),41150,True,False,False,False,False,False,False,False,False,True,"41.804236, -87.704406",41.804236,-87.704406,60632,63,60632,21641
30185,N,Pulaski (Loop-bound),Pulaski,Pulaski (Orange Line),40960,True,False,False,False,False,False,False,False,False,True,"41.799756, -87.724493",41.799756,-87.724493,60632,30,60632,0
30185,N,Pulaski (Loop-bound),Pulaski,Pulaski (Orange Line),40960,True,False,False,False,False,False,False,False,False,True,"41.799756, -87.724493",41.799756,-87.724493,60632,56,60632,3752
30185,N,Pulaski (Loop-bound),Pulaski,Pulaski (Orange Line),40960,True,False,False,False,False,False,False,False,False,True,"41.799756, -87.724493",41.799756,-87.724493,60632,57,60632,13393
30185,N,Pulaski (Loop-bound),Pulaski,Pulaski (Orange Line),40960,True,False,False,False,False,False,False,False,False,True,"41.799756, -87.724493",41.799756,-87.724493,60632,58,60632,45122
30185,N,Pulaski (Loop-bound),Pulaski,Pulaski (Orange Line),40960,True,False,False,False,False,False,False,False,False,True,"41.799756, -87.724493",41.799756,-87.724493,60632,59,60632,175
30185,N,Pulaski (Loop-bound),Pulaski,Pulaski (Orange Line),40960,True,False,False,False,False,False,False,False,False,True,"41.799756, -87.724493",41.799756,-87.724493,60632,62,60632,7243
30185,N,Pulaski (Loop-bound),Pulaski,Pulaski (Orange Line),40960,True,False,False,False,False,False,False,False,False,True,"41.799756, -87.724493",41.799756,-87.724493,60632,63,60632,21641
30186,S,Pulaski (Midway-bound),Pulaski,Pulaski (Orange Line),40960,True,False,False,False,False,False,False,False,False,True,"41.799756, -87.724493",41.799756,-87.724493,60632,30,60632,0
30186,S,Pulaski (Midway-bound),Pulaski,Pulaski (Orange Line),40960,True,False,False,False,False,False,False,False,False,True,"41.799756, -87.724493",41.799756,-87.724493,60632,56,60632,3752
30186,S,Pulaski (Midway-bound),Pulaski,Pulaski (Orange Line),40960,True,False,False,False,False,False,False,False,False,True,"41.799756, -87.724493",41.799756,-87.724493,60632,57,60632,13393
30186,S,Pulaski (Midway-bound),Pulaski,Pulaski (Orange Line),40960,True,False,False,False,False,False,False,False,False,True,"41.799756, -87.724493",41.799756,-87.724493,60632,58,60632,45122
30186,S,Pulaski (Midway-bound),Pulaski,Pulaski (Orange Line),40960,True,False,False,False,False,False,False,False,False,True,"41.799756, -87.724493",41.799756,-87.724493,60632,59,60632,175
30186,S,Pulaski (Midway-bound),Pulaski,Pulaski (Orange Line),40960,True,False,False,False,False,False,False,False,False,True,"41.799756, -87.724493",41.799756,-87.724493,60632,62,60632,7243
30186,S,Pulaski (Midway-bound),Pulaski,Pulaski (Orange Line),40960,True,False,False,False,False,False,False,False,False,True,"41.799756, -87.724493",41.799756,-87.724493,60632,63,60632,21641
30118,W,Kostner (54th/Cermak-bound),Kostner,Kostner (Pink Line),40600,True,False,False,False,False,False,False,False,True,False,"41.853751, -87.733258",41.853751,-87.733258,60623,29,60623,29474
30118,W,Kostner (54th/Cermak-bound),Kostner,Kostner (Pink Line),40600,True,False,False,False,False,False,False,False,True,False,"41.853751, -87.733258",41.853751,-87.733258,60623,30,60623,62634
30117,E,Kostner (Loop-bound),Kostner,Kostner (Pink Line),40600,True,False,False,False,False,False,False,False,True,False,"41.853751, -87.733258",41.853751,-87.733258,60623,29,60623,29474
30117,E,Kostner (Loop-bound),Kostner,Kostner (Pink Line),40600,True,False,False,False,False,False,False,False,True,False,"41.853751, -87.733258",41.853751,-87.733258,60623,30,60623,62634
30029,W,Pulaski (54th/Cermak-bound),Pulaski,Pulaski (Pink Line),40150,True,False,False,False,False,False,False,False,True,False,"41.853732, -87.724311",41.853732,-87.724311,60623,29,60623,29474
30029,W,Pulaski (54th/Cermak-bound),Pulaski,Pulaski (Pink Line),40150,True,False,False,False,False,False,False,False,True,False,"41.853732, -87.724311",41.853732,-87.724311,60623,30,60623,62634
30028,E,Pulaski (Loop-bound),Pulaski,Pulaski (Pink Line),40150,True,False,False,False,False,False,False,False,True,False,"41.853732, -87.724311",41.853732,-87.724311,60623,29,60623,29474
30028,E,Pulaski (Loop-bound),Pulaski,Pulaski (Pink Line),40150,True,False,False,False,False,False,False,False,True,False,"41.853732, -87.724311",41.853732,-87.724311,60623,30,60623,62634
30198,S,Logan Square (Forest Pk-bound),Logan Square,Logan Square (Blue Line),41020,True,False,True,False,False,False,False,False,False,False,"41.929728, -87.708541",41.929728,-87.708541,60647,07,60647,314
30198,S,Logan Square (Forest Pk-bound),Logan Square,Logan Square (Blue Line),41020,True,False,True,False,False,False,False,False,False,False,"41.929728, -87.708541",41.929728,-87.708541,60647,20,60647,735
30198,S,Logan Square (Forest Pk-bound),Logan Square,Logan Square (Blue Line),41020,True,False,True,False,False,False,False,False,False,False,"41.929728, -87.708541",41.929728,-87.708541,60647,21,60647,1528
30198,S,Logan Square (Forest Pk-bound),Logan Square,Logan Square (Blue Line),41020,True,False,True,False,False,False,False,False,False,False,"41.929728, -87.708541",41.929728,-87.708541,60647,22,60647,69813
30198,S,Logan Square (Forest Pk-bound),Logan Square,Logan Square (Blue Line),41020,True,False,True,False,False,False,False,False,False,False,"41.929728, -87.708541",41.929728,-87.708541,60647,23,60647,7671
30198,S,Logan Square (Forest Pk-bound),Logan Square,Logan Square (Blue Line),41020,True,False,True,False,False,False,False,False,False,False,"41.929728, -87.708541",41.929728,-87.708541,60647,24,60647,7230
30197,N,Logan Square (O'Hare-bound),Logan Square,Logan Square (Blue Line),41020,True,False,True,False,False,False,False,False,False,False,"41.929728, -87.708541",41.929728,-87.708541,60647,07,60647,314
30197,N,Logan Square (O'Hare-bound),Logan Square,Logan Square (Blue Line),41020,True,False,True,False,False,False,False,False,False,False,"41.929728, -87.708541",41.929728,-87.708541,60647,20,60647,735
30197,N,Logan Square (O'Hare-bound),Logan Square,Logan Square (Blue Line),41020,True,False,True,False,False,False,False,False,False,False,"41.929728, -87.708541",41.929728,-87.708541,60647,21,60647,1528
30197,N,Logan Square (O'Hare-bound),Logan Square,Logan Square (Blue Line),41020,True,False,True,False,False,False,False,False,False,False,"41.929728, -87.708541",41.929728,-87.708541,60647,22,60647,69813
30197,N,Logan Square (O'Hare-bound),Logan Square,Logan Square (Blue Line),41020,True,False,True,False,False,False,False,False,False,False,"41.929728, -87.708541",41.929728,-87.708541,60647,23,60647,7671
30197,N,Logan Square (O'Hare-bound),Logan Square,Logan Square (Blue Line),41020,True,False,True,False,False,False,False,False,False,False,"41.929728, -87.708541",41.929728,-87.708541,60647,24,60647,7230
30111,N,California (O'Hare-bound),California,California (Blue Line),40570,False,False,True,False,False,False,False,False,False,False,"41.921939, -87.69689",41.921939,-87.69689,60647,07,60647,314
30111,N,California (O'Hare-bound),California,California (Blue Line),40570,False,False,True,False,False,False,False,False,False,False,"41.921939, -87.69689",41.921939,-87.69689,60647,20,60647,735
30111,N,California (O'Hare-bound),California,California (Blue Line),40570,False,False,True,False,False,False,False,False,False,False,"41.921939, -87.69689",41.921939,-87.69689,60647,21,60647,1528
30111,N,California (O'Hare-bound),California,California (Blue Line),40570,False,False,True,False,False,False,False,False,False,False,"41.921939, -87.69689",41.921939,-87.69689,60647,22,60647,69813
30111,N,California (O'Hare-bound),California,California (Blue Line),40570,False,False,True,False,False,False,False,False,False,False,"41.921939, -87.69689",41.921939,-87.69689,60647,23,60647,7671
30111,N,California (O'Hare-bound),California,California (Blue Line),40570,False,False,True,False,False,False,False,False,False,False,"41.921939, -87.69689",41.921939,-87.69689,60647,24,60647,7230
30112,S,California (Forest Pk-bound),California,California  (Blue Line),40570,False,False,True,False,False,False,False,False,False,False,"41.921939, -87.69689",41.921939,-87.69689,60647,07,60647,314
30112,S,California (Forest Pk-bound),California,California  (Blue Line),40570,False,False,True,False,False,False,False,False,False,False,"41.921939, -87.69689",41.921939,-87.69689,60647,20,60647,735
30112,S,California (Forest Pk-bound),California,California  (Blue Line),40570,False,False,True,False,False,False,False,False,False,False,"41.921939, -87.69689",41.921939,-87.69689,60647,21,60647,1528
30112,S,California (Forest Pk-bound),California,California  (Blue Line),40570,False,False,True,False,False,False,False,False,False,False,"41.921939, -87.69689",41.921939,-87.69689,60647,22,60647,69813
30112,S,California (Forest Pk-bound),California,California  (Blue Line),40570,False,False,True,False,False,False,False,False,False,False,"41.921939, -87.69689",41.921939,-87.69689,60647,23,60647,7671
30112,S,California (Forest Pk-bound),California,California  (Blue Line),40570,False,False,True,False,False,False,False,False,False,False,"41.921939, -87.69689",41.921939,-87.69689,60647,24,60647,7230
30130,S,Western (O'Hare Branch) (Forest Pk-bound),Western,Western (Blue Line - O'Hare Branch),40670,True,False,True,False,False,False,False,False,False,False,"41.916157, -87.687364",41.916157,-87.687364,60647,07,60647,314
30130,S,Western (O'Hare Branch) (Forest Pk-bound),Western,Western (Blue Line - O'Hare Branch),40670,True,False,True,False,False,False,False,False,False,False,"41.916157, -87.687364",41.916157,-87.687364,60647,20,60647,735
30130,S,Western (O'Hare Branch) (Forest Pk-bound),Western,Western (Blue Line - O'Hare Branch),40670,True,False,True,False,False,False,False,False,False,False,"41.916157, -87.687364",41.916157,-87.687364,60647,21,60647,1528
30130,S,Western (O'Hare Branch) (Forest Pk-bound),Western,Western (Blue Line - O'Hare Branch),40670,True,False,True,False,False,False,False,False,False,False,"41.916157, -87.687364",41.916157,-87.687364,60647,22,60647,69813
30130,S,Western (O'Hare Branch) (Forest Pk-bound),Western,Western (Blue Line - O'Hare Branch),40670,True,False,True,False,False,False,False,False,False,False,"41.916157, -87.687364",41.916157,-87.687364,60647,23,60647,7671
30130,S,Western (O'Hare Branch) (Forest Pk-bound),Western,Western (Blue Line - O'Hare Branch),40670,True,False,True,False,False,False,False,False,False,False,"41.916157, -87.687364",41.916157,-87.687364,60647,24,60647,7230
30129,N,Western (O'Hare Branch) (O'Hare-bound),Western,Western (Blue Line - O'Hare Branch),40670,True,False,True,False,False,False,False,False,False,False,"41.916157, -87.687364",41.916157,-87.687364,60647,07,60647,314
30129,N,Western (O'Hare Branch) (O'Hare-bound),Western,Western (Blue Line - O'Hare Branch),40670,True,False,True,False,False,False,False,False,False,False,"41.916157, -87.687364",41.916157,-87.687364,60647,20,60647,735
30129,N,Western (O'Hare Branch) (O'Hare-bound),Western,Western (Blue Line - O'Hare Branch),40670,True,False,True,False,False,False,False,False,False,False,"41.916157, -87.687364",41.916157,-87.687364,60647,21,60647,1528
30129,N,Western (O'Hare Branch) (O'Hare-bound),Western,Western (Blue Line - O'Hare Branch),40670,True,False,True,False,False,False,False,False,False,False,"41.916157, -87.687364",41.916157,-87.687364,60647,22,60647,69813
30129,N,Western (O'Hare Branch) (O'Hare-bound),Western,Western (Blue Line - O'Hare Branch),40670,True,False,True,False,False,False,False,False,False,False,"41.916157, -87.687364",41.916157,-87.687364,60647,23,60647,7671
30129,N,Western (O'Hare Branch) (O'Hare-bound),Western,Western (Blue Line - O'Hare Branch),40670,True,False,True,False,False,False,False,False,False,False,"41.916157, -87.687364",41.916157,-87.687364,60647,24,60647,7230
30182,S,Midway (Arrival),Midway,Midway (Orange Line),40930,True,False,False,False,False,False,False,False,False,True,"41.78661, -87.737875",41.78661,-87.737875,60629,56,60629,0
30182,S,Midway (Arrival),Midway,Midway (Orange Line),40930,True,False,False,False,False,False,False,False,False,True,"41.78661, -87.737875",41.78661,-87.737875,60629,62,60629,10866
30182,S,Midway (Arrival),Midway,Midway (Orange Line),40930,True,False,False,False,False,False,False,False,False,True,"41.78661, -87.737875",41.78661,-87.737875,60629,63,60629,16628
30182,S,Midway (Arrival),Midway,Midway (Orange Line),40930,True,False,False,False,False,False,False,False,False,True,"41.78661, -87.737875",41.78661,-87.737875,60629,64,60629,2927
30182,S,Midway (Arrival),Midway,Midway (Orange Line),40930,True,False,False,False,False,False,False,False,False,True,"41.78661, -87.737875",41.78661,-87.737875,60629,65,60629,32388
30182,S,Midway (Arrival),Midway,Midway (Orange Line),40930,True,False,False,False,False,False,False,False,False,True,"41.78661, -87.737875",41.78661,-87.737875,60629,66,60629,51103
30182,S,Midway (Arrival),Midway,Midway (Orange Line),40930,True,False,False,False,False,False,False,False,False,True,"41.78661, -87.737875",41.78661,-87.737875,60629,70,60629,4
30181,N,Midway (Loop-bound),Midway,Midway (Orange Line),40930,True,False,False,False,False,False,False,False,False,True,"41.78661, -87.737875",41.78661,-87.737875,60629,56,60629,0
30181,N,Midway (Loop-bound),Midway,Midway (Orange Line),40930,True,False,False,False,False,False,False,False,False,True,"41.78661, -87.737875",41.78661,-87.737875,60629,62,60629,10866
30181,N,Midway (Loop-bound),Midway,Midway (Orange Line),40930,True,False,False,False,False,False,False,False,False,True,"41.78661, -87.737875",41.78661,-87.737875,60629,63,60629,16628
30181,N,Midway (Loop-bound),Midway,Midway (Orange Line),40930,True,False,False,False,False,False,False,False,False,True,"41.78661, -87.737875",41.78661,-87.737875,60629,64,60629,2927
30181,N,Midway (Loop-bound),Midway,Midway (Orange Line),40930,True,False,False,False,False,False,False,False,False,True,"41.78661, -87.737875",41.78661,-87.737875,60629,65,60629,32388
30181,N,Midway (Loop-bound),Midway,Midway (Orange Line),40930,True,False,False,False,False,False,False,False,False,True,"41.78661, -87.737875",41.78661,-87.737875,60629,66,60629,51103
30181,N,Midway (Loop-bound),Midway,Midway (Orange Line),40930,True,False,False,False,False,False,False,False,False,True,"41.78661, -87.737875",41.78661,-87.737875,60629,70,60629,4
30160,S,Rosemont (Forest Pk-bound),Rosemont,Rosemont (Blue Line),40820,True,False,True,False,False,False,False,False,False,False,"41.983507, -87.859388",41.983507,-87.859388,60018,76,60018,1
30159,N,Rosemont (O'Hare-bound),Rosemont,Rosemont (Blue Line),40820,True,False,True,False,False,False,False,False,False,False,"41.983507, -87.859388",41.983507,-87.859388,60018,76,60018,1
30155,N,Sedgwick (Kimball-Linden-bound),Sedgwick,Sedgwick (Brown & Purple Lines),40800,True,False,False,False,True,False,True,False,False,False,"41.910409, -87.639302",41.910409,-87.639302,60610,07,60610,257
30155,N,Sedgwick (Kimball-Linden-bound),Sedgwick,Sedgwick (Brown & Purple Lines),40800,True,False,False,False,True,False,True,False,False,False,"41.910409, -87.639302",41.910409,-87.639302,60610,08,60610,37462
30155,N,Sedgwick (Kimball-Linden-bound),Sedgwick,Sedgwick (Brown & Purple Lines),40800,True,False,False,False,True,False,True,False,False,False,"41.910409, -87.639302",41.910409,-87.639302,60610,24,60610,7
30156,S,Sedgwick (Loop-bound),Sedgwick,Sedgwick (Brown & Purple Lines),40800,True,False,False,False,True,False,True,False,False,False,"41.910409, -87.639302",41.910409,-87.639302,60610,07,60610,257
30156,S,Sedgwick (Loop-bound),Sedgwick,Sedgwick (Brown & Purple Lines),40800,True,False,False,False,True,False,True,False,False,False,"41.910409, -87.639302",41.910409,-87.639302,60610,08,60610,37462
30156,S,Sedgwick (Loop-bound),Sedgwick,Sedgwick (Brown & Purple Lines),40800,True,False,False,False,True,False,True,False,False,False,"41.910409, -87.639302",41.910409,-87.639302,60610,24,60610,7
30121,N,Clark/Division (Howard-bound),Clark/Division,Clark/Division (Red Line),40630,True,True,False,False,False,False,False,False,False,False,"41.90392, -87.631412",41.90392,-87.631412,60610,07,60610,257
30121,N,Clark/Division (Howard-bound),Clark/Division,Clark/Division (Red Line),40630,True,True,False,False,False,False,False,False,False,False,"41.90392, -87.631412",41.90392,-87.631412,60610,08,60610,37462
30121,N,Clark/Division (Howard-bound),Clark/Division,Clark/Division (Red Line),40630,True,True,False,False,False,False,False,False,False,False,"41.90392, -87.631412",41.90392,-87.631412,60610,24,60610,7
30138,S,Chicago (Loop-bound),Chicago,Chicago (Brown & Purple Lines),40710,True,False,False,False,True,False,True,False,False,False,"41.89681, -87.635924",41.89681,-87.635924,60610,07,60610,257
30138,S,Chicago (Loop-bound),Chicago,Chicago (Brown & Purple Lines),40710,True,False,False,False,True,False,True,False,False,False,"41.89681, -87.635924",41.89681,-87.635924,60610,08,60610,37462
30138,S,Chicago (Loop-bound),Chicago,Chicago (Brown & Purple Lines),40710,True,False,False,False,True,False,True,False,False,False,"41.89681, -87.635924",41.89681,-87.635924,60610,24,60610,7
30137,N,Chicago (Kimball-Linden-bound),Chicago,Chicago (Brown & Purple Lines),40710,True,False,False,False,True,False,True,False,False,False,"41.89681, -87.635924",41.89681,-87.635924,60610,07,60610,257
30137,N,Chicago (Kimball-Linden-bound),Chicago,Chicago (Brown & Purple Lines),40710,True,False,False,False,True,False,True,False,False,False,"41.89681, -87.635924",41.89681,-87.635924,60610,08,60610,37462
30137,N,Chicago (Kimball-Linden-bound),Chicago,Chicago (Brown & Purple Lines),40710,True,False,False,False,True,False,True,False,False,False,"41.89681, -87.635924",41.89681,-87.635924,60610,24,60610,7
30122,S,Clark/Division (95th-bound),Clark/Division,Clark/Division (Red Line),40630,True,True,False,False,False,False,False,False,False,False,"41.90392, -87.631412",41.90392,-87.631412,60610,07,60610,257
30122,S,Clark/Division (95th-bound),Clark/Division,Clark/Division (Red Line),40630,True,True,False,False,False,False,False,False,False,False,"41.90392, -87.631412",41.90392,-87.631412,60610,08,60610,37462
30122,S,Clark/Division (95th-bound),Clark/Division,Clark/Division (Red Line),40630,True,True,False,False,False,False,False,False,False,False,"41.90392, -87.631412",41.90392,-87.631412,60610,24,60610,7
30141,N,Washington/Wells (Inner Loop),Washington/Wells,"Washington/Wells (Brown, Orange, Purple & Pink Lines)",40730,True,False,False,False,False,False,True,False,True,True,"41.882695, -87.63378",41.882695,-87.63378,60606,28,60606,1783
30141,N,Washington/Wells (Inner Loop),Washington/Wells,"Washington/Wells (Brown, Orange, Purple & Pink Lines)",40730,True,False,False,False,False,False,True,False,True,True,"41.882695, -87.63378",41.882695,-87.63378,60606,32,60606,525
30142,S,Washington/Wells (Outer Loop),Washington/Wells,"Washington/Wells (Brown, Orange, Purple & Pink Lines)",40730,True,False,False,False,True,False,False,False,False,False,"41.882695, -87.63378",41.882695,-87.63378,60606,28,60606,1783
30142,S,Washington/Wells (Outer Loop),Washington/Wells,"Washington/Wells (Brown, Orange, Purple & Pink Lines)",40730,True,False,False,False,True,False,False,False,False,False,"41.882695, -87.63378",41.882695,-87.63378,60606,32,60606,525
30073,S,Washington (Forest Pk-bound),Washington,Washington (Blue Line),40370,False,False,True,False,False,False,False,False,False,False,"41.883164, -87.62944",41.883164,-87.62944,60602,32,60602,1204
30072,N,Washington (O'Hare-bound),Washington,Washington (Blue Line),40370,False,False,True,False,False,False,False,False,False,False,"41.883164, -87.62944",41.883164,-87.62944,60602,32,60602,1204
30384,S,Washington/Wabash (Inner Loop),Washington/Wabash,"Washington/Wabash (Brown, Green, Orange, Purple & Pink Lines)",41700,True,False,False,True,False,False,True,False,True,True,"41.88322, -87.626189",41.88322,-87.626189,60602,32,60602,1204
30383,N,Washington/Wabash (Outer Loop),Washington/Wabash,"Washington/Wabash (Brown, Green, Orange, Purple & Pink Lines)",41700,True,False,False,True,True,False,False,False,False,False,"41.88322, -87.626189",41.88322,-87.626189,60602,32,60602,1204
